var data = [
  {
    "position": {
      "lat": 61.21759217,
      "lng": -149.8935557
    },
    "state": "AK",
    "title": "Anchorage  00001",
    "icon": "img/starbucks.png"
  },{
    "position": {
      "lat": 61.19533942,
      "lng": -149.9054948
    },
    "state": "AK",
    "title": "Anchorage  00002",
    "icon": "img/starbucks.png"
  },{
    "position": {
      "lat": 61.2297,
      "lng": -149.7522
    },
    "state": "AK",
    "title": "Anchorage  00003",
    "icon": "img/starbucks.png"
  },{
    "position": {
      "lat": 61.19525062,
      "lng": -149.8643361
    },
    "state": "AK",
    "title": "Anchorage  00004",
    "icon": "img/starbucks.png"
  },{
    "position": {
      "lat": 61.13751355,
      "lng": -149.8379726
    },
    "state": "AK",
    "title": "Anchorage  00005",
    "icon": "img/starbucks.png"
  },{
    "position": {
      "lat": 61.13994658,
      "lng": -149.9092788
    },
    "state": "AK",
    "title": "Anchorage  00006",
    "icon": "img/starbucks.png"
  },{
    "position": {
      "lat": 61.19533265,
      "lng": -149.7364877
    },
    "state": "AK",
    "title": "Anchorage  00007",
    "icon": "img/starbucks.png"
  },{
    "position": {
      "lat": 61.2156,
      "lng": -149.8211
    },
    "state": "AK",
    "title": "Anchorage  00008",
    "icon": "img/starbucks.png"
  },{
    "position": {
      "lat": 61.13806145,
      "lng": -149.8445832
    },
    "state": "AK",
    "title": "Anchorage  00009",
    "icon": "img/starbucks.png"
  },{
    "position": {
      "lat": 61.176693,
      "lng": -149.9728678
    },
    "state": "AK",
    "title": "Anchorage [A]  00010",
    "icon": "img/starbucks.png"
  },{
    "position": {
      "lat": 61.14473454,
      "lng": -149.8638034
    },
    "state": "AK",
    "title": "Anchorage [D]  00011",
    "icon": "img/starbucks.png"
  },{
    "position": {
      "lat": 61.18081843,
      "lng": -149.8359225
    },
    "state": "AK",
    "title": "Anchorage [D]  00012",
    "icon": "img/starbucks.png"
  },{
    "position": {
      "lat": 61.180763,
      "lng": -149.88695
    },
    "state": "AK",
    "title": "Anchorage [D]  00013",
    "icon": "img/starbucks.png"
  },{
    "position": {
      "lat": 61.345921,
      "lng": -149.552503
    },
    "state": "AK",
    "title": "Eagle River  00014",
    "icon": "img/starbucks.png"
  },{
    "position": {
      "lat": 61.32360721,
      "lng": -149.5708432
    },
    "state": "AK",
    "title": "Eagle River  00015",
    "icon": "img/starbucks.png"
  },{
    "position": {
      "lat": 61.3252,
      "lng": -149.571083
    },
    "state": "AK",
    "title": "Eagle River [D]  00016",
    "icon": "img/starbucks.png"
  },{
    "position": {
      "lat": 64.8522227,
      "lng": -147.690082
    },
    "state": "AK",
    "title": "Fairbanks  00017",
    "icon": "img/starbucks.png"
  },{
    "position": {
      "lat": 64.85064492,
      "lng": -147.7044254
    },
    "state": "AK",
    "title": "Fairbanks  00018",
    "icon": "img/starbucks.png"
  },{
    "position": {
      "lat": 64.83696195,
      "lng": -147.8222994
    },
    "state": "AK",
    "title": "Fairbanks  00019",
    "icon": "img/starbucks.png"
  },{
    "position": {
      "lat": 59.64204,
      "lng": -151.53123
    },
    "state": "AK",
    "title": "Homer  00020",
    "icon": "img/starbucks.png"
  },{
    "position": {
      "lat": 58.3601,
      "lng": -134.5621
    },
    "state": "AK",
    "title": "Juneau  00021",
    "icon": "img/starbucks.png"
  },{
    "position": {
      "lat": 55.35173351,
      "lng": -131.680747
    },
    "state": "AK",
    "title": "Ketchikan  00022",
    "icon": "img/starbucks.png"
  },{
    "position": {
      "lat": 57.81208717,
      "lng": -152.3609342
    },
    "state": "AK",
    "title": "Kodiak  00023",
    "icon": "img/starbucks.png"
  },{
    "position": {
      "lat": 61.60093654,
      "lng": -149.1183292
    },
    "state": "AK",
    "title": "Palmer  00024",
    "icon": "img/starbucks.png"
  },{
    "position": {
      "lat": 60.12892832,
      "lng": -149.4331873
    },
    "state": "AK",
    "title": "Seward  00025",
    "icon": "img/starbucks.png"
  },{
    "position": {
      "lat": 60.49443906,
      "lng": -151.0417651
    },
    "state": "AK",
    "title": "Soldotna  00026",
    "icon": "img/starbucks.png"
  },{
    "position": {
      "lat": 60.489986,
      "lng": -151.051614
    },
    "state": "AK",
    "title": "Soldotna  00027",
    "icon": "img/starbucks.png"
  },{
    "position": {
      "lat": 61.57691,
      "lng": -149.40958
    },
    "state": "AK",
    "title": "Wasilla  00028",
    "icon": "img/starbucks.png"
  },{
    "position": {
      "lat": 33.2152,
      "lng": -86.827626
    },
    "state": "AL",
    "title": "Alabaster [WD]  00029",
    "icon": "img/starbucks.png"
  },{
    "position": {
      "lat": 34.785059,
      "lng": -86.949656
    },
    "state": "AL",
    "title": "Athens [WD]  00030",
    "icon": "img/starbucks.png"
  },{
    "position": {
      "lat": 33.50904809,
      "lng": -86.78842024
    },
    "state": "AL",
    "title": "Birmingham  00031",
    "icon": "img/starbucks.png"
  },{
    "position": {
      "lat": 33.447522,
      "lng": -86.826127
    },
    "state": "AL",
    "title": "Birmingham  00032",
    "icon": "img/starbucks.png"
  },{
    "position": {
      "lat": 33.42956176,
      "lng": -86.7102897
    },
    "state": "AL",
    "title": "Birmingham  00033",
    "icon": "img/starbucks.png"
  },{
    "position": {
      "lat": 33.5062,
      "lng": -86.8018
    },
    "state": "AL",
    "title": "Birmingham  00034",
    "icon": "img/starbucks.png"
  },{
    "position": {
      "lat": 33.37312732,
      "lng": -86.8113765
    },
    "state": "AL",
    "title": "Birmingham [WD]  00035",
    "icon": "img/starbucks.png"
  },{
    "position": {
      "lat": 33.41838757,
      "lng": -86.66982766
    },
    "state": "AL",
    "title": "Birmingham [WD]  00036",
    "icon": "img/starbucks.png"
  },{
    "position": {
      "lat": 33.5868,
      "lng": -86.7011
    },
    "state": "AL",
    "title": "Birmingham [WD]  00037",
    "icon": "img/starbucks.png"
  },{
    "position": {
      "lat": 33.50263454,
      "lng": -86.75620223
    },
    "state": "AL",
    "title": "Birmingham [W]  00038",
    "icon": "img/starbucks.png"
  },{
    "position": {
      "lat": 33.50040126,
      "lng": -86.79644474
    },
    "state": "AL",
    "title": "Birmingham [W]  00039",
    "icon": "img/starbucks.png"
  },{
    "position": {
      "lat": 33.504689,
      "lng": -86.799091
    },
    "state": "AL",
    "title": "Birmingham [W]  00040",
    "icon": "img/starbucks.png"
  },{
    "position": {
      "lat": 30.601019,
      "lng": -87.898099
    },
    "state": "AL",
    "title": "Daphne [WD]  00041",
    "icon": "img/starbucks.png"
  },{
    "position": {
      "lat": 30.377666,
      "lng": -87.683099
    },
    "state": "AL",
    "title": "Foley [WD]  00042",
    "icon": "img/starbucks.png"
  },{
    "position": {
      "lat": 30.304936,
      "lng": -87.682999
    },
    "state": "AL",
    "title": "Gulf Shores  00043",
    "icon": "img/starbucks.png"
  },{
    "position": {
      "lat": 33.38072249,
      "lng": -86.80917035
    },
    "state": "AL",
    "title": "Hoover  00044",
    "icon": "img/starbucks.png"
  },{
    "position": {
      "lat": 33.42254,
      "lng": -86.69949
    },
    "state": "AL",
    "title": "Hoover [WD]  00045",
    "icon": "img/starbucks.png"
  },{
    "position": {
      "lat": 34.7407,
      "lng": -86.665699
    },
    "state": "AL",
    "title": "Huntsville  00046",
    "icon": "img/starbucks.png"
  },{
    "position": {
      "lat": 34.74505961,
      "lng": -86.68134336
    },
    "state": "AL",
    "title": "Huntsville  00047",
    "icon": "img/starbucks.png"
  },{
    "position": {
      "lat": 34.68203745,
      "lng": -86.55230743
    },
    "state": "AL",
    "title": "Huntsville  00048",
    "icon": "img/starbucks.png"
  },{
    "position": {
      "lat": 34.769819,
      "lng": -86.58647
    },
    "state": "AL",
    "title": "Huntsville [WD]  00049",
    "icon": "img/starbucks.png"
  },{
    "position": {
      "lat": 34.7266,
      "lng": -86.575905
    },
    "state": "AL",
    "title": "Huntsville [WD]  00050",
    "icon": "img/starbucks.png"
  },{
    "position": {
      "lat": 34.69111819,
      "lng": -86.57429381
    },
    "state": "AL",
    "title": "Huntsville [W]  00051",
    "icon": "img/starbucks.png"
  },{
    "position": {
      "lat": 34.72002697,
      "lng": -86.57919788
    },
    "state": "AL",
    "title": "Huntsville [W]  00052",
    "icon": "img/starbucks.png"
  },{
    "position": {
      "lat": 30.68976,
      "lng": -88.04221
    },
    "state": "AL",
    "title": "Mobile  00053",
    "icon": "img/starbucks.png"
  },{
    "position": {
      "lat": 30.697309,
      "lng": -88.143477
    },
    "state": "AL",
    "title": "Mobile  00054",
    "icon": "img/starbucks.png"
  },{
    "position": {
      "lat": 30.673693,
      "lng": -88.12661
    },
    "state": "AL",
    "title": "Mobile  00055",
    "icon": "img/starbucks.png"
  },{
    "position": {
      "lat": 30.67333454,
      "lng": -88.2255057
    },
    "state": "AL",
    "title": "Mobile  00056",
    "icon": "img/starbucks.png"
  },{
    "position": {
      "lat": 30.681004,
      "lng": -88.196698
    },
    "state": "AL",
    "title": "Mobile [D]  00057",
    "icon": "img/starbucks.png"
  },{
    "position": {
      "lat": 30.680498,
      "lng": -88.072584
    },
    "state": "AL",
    "title": "Mobile [D]  00058",
    "icon": "img/starbucks.png"
  },{
    "position": {
      "lat": 30.67621703,
      "lng": -88.14309381
    },
    "state": "AL",
    "title": "Mobile [WD]  00059",
    "icon": "img/starbucks.png"
  },{
    "position": {
      "lat": 30.687603,
      "lng": -88.130514
    },
    "state": "AL",
    "title": "Mobile [WD]  00060",
    "icon": "img/starbucks.png"
  },{
    "position": {
      "lat": 30.69911,
      "lng": -88.22533
    },
    "state": "AL",
    "title": "Mobile [WD]  00061",
    "icon": "img/starbucks.png"
  },{
    "position": {
      "lat": 30.6761,
      "lng": -88.122539
    },
    "state": "AL",
    "title": "Mobile [WD]  00062",
    "icon": "img/starbucks.png"
  },{
    "position": {
      "lat": 30.661638,
      "lng": -88.190499
    },
    "state": "AL",
    "title": "Mobile [WD]  00063",
    "icon": "img/starbucks.png"
  },{
    "position": {
      "lat": 32.338634,
      "lng": -86.181656
    },
    "state": "AL",
    "title": "Montgomery [D]  00064",
    "icon": "img/starbucks.png"
  },{
    "position": {
      "lat": 32.3825,
      "lng": -86.183853
    },
    "state": "AL",
    "title": "Montgomery [WD]  00065",
    "icon": "img/starbucks.png"
  },{
    "position": {
      "lat": 32.3399,
      "lng": -86.18089
    },
    "state": "AL",
    "title": "Montgomery [WD]  00066",
    "icon": "img/starbucks.png"
  },{
    "position": {
      "lat": 32.35239312,
      "lng": -86.26356801
    },
    "state": "AL",
    "title": "Montgomery [WD]  00067",
    "icon": "img/starbucks.png"
  },{
    "position": {
      "lat": 32.35217285,
      "lng": -86.21922302
    },
    "state": "AL",
    "title": "Montgomery [W]  00068",
    "icon": "img/starbucks.png"
  },{
    "position": {
      "lat": 33.484513,
      "lng": -86.773962
    },
    "state": "AL",
    "title": "Mountain Brook [W]  00069",
    "icon": "img/starbucks.png"
  },{
    "position": {
      "lat": 32.6280937,
      "lng": -85.40687104
    },
    "state": "AL",
    "title": "Opelika  00070",
    "icon": "img/starbucks.png"
  },{
    "position": {
      "lat": 32.6548,
      "lng": -85.3928
    },
    "state": "AL",
    "title": "Opelika [WD]  00071",
    "icon": "img/starbucks.png"
  },{
    "position": {
      "lat": 33.5927,
      "lng": -85.842
    },
    "state": "AL",
    "title": "Oxford  00072",
    "icon": "img/starbucks.png"
  },{
    "position": {
      "lat": 33.60858102,
      "lng": -85.82810247
    },
    "state": "AL",
    "title": "Oxford [D]  00073",
    "icon": "img/starbucks.png"
  },{
    "position": {
      "lat": 30.669385,
      "lng": -87.852027
    },
    "state": "AL",
    "title": "Spanish Fort [D]  00074",
    "icon": "img/starbucks.png"
  },{
    "position": {
      "lat": 33.60234164,
      "lng": -86.63801947
    },
    "state": "AL",
    "title": "Trussville  00075",
    "icon": "img/starbucks.png"
  },{
    "position": {
      "lat": 33.59541,
      "lng": -86.64673
    },
    "state": "AL",
    "title": "Trussville [WD]  00076",
    "icon": "img/starbucks.png"
  },{
    "position": {
      "lat": 33.20120805,
      "lng": -87.51826693
    },
    "state": "AL",
    "title": "Tuscaloosa  00077",
    "icon": "img/starbucks.png"
  },{
    "position": {
      "lat": 33.21231052,
      "lng": -87.54677614
    },
    "state": "AL",
    "title": "Tuscaloosa  00078",
    "icon": "img/starbucks.png"
  },{
    "position": {
      "lat": 33.421892,
      "lng": -86.797593
    },
    "state": "AL",
    "title": "Vestavia Hills [WD]  00079",
    "icon": "img/starbucks.png"
  },{
    "position": {
      "lat": 33.455541,
      "lng": -86.735925
    },
    "state": "AL",
    "title": "Vestavia Hills [WD]  00080",
    "icon": "img/starbucks.png"
  },{
    "position": {
      "lat": 36.35696718,
      "lng": -94.21321152
    },
    "state": "AR",
    "title": "Bentonville  00081",
    "icon": "img/starbucks.png"
  },{
    "position": {
      "lat": 34.60255,
      "lng": -92.53446
    },
    "state": "AR",
    "title": "Bryant  00082",
    "icon": "img/starbucks.png"
  },{
    "position": {
      "lat": 35.0785,
      "lng": -92.3874
    },
    "state": "AR",
    "title": "Conway  00083",
    "icon": "img/starbucks.png"
  },{
    "position": {
      "lat": 35.09135,
      "lng": -92.41866
    },
    "state": "AR",
    "title": "Conway [WD]  00084",
    "icon": "img/starbucks.png"
  },{
    "position": {
      "lat": 35.11074111,
      "lng": -92.43947287
    },
    "state": "AR",
    "title": "Conway [WD]  00085",
    "icon": "img/starbucks.png"
  },{
    "position": {
      "lat": 36.123007,
      "lng": -94.145299
    },
    "state": "AR",
    "title": "Fayetteville [D]  00086",
    "icon": "img/starbucks.png"
  },{
    "position": {
      "lat": 35.3587282,
      "lng": -94.36294976
    },
    "state": "AR",
    "title": "Fort Smith [D]  00087",
    "icon": "img/starbucks.png"
  },{
    "position": {
      "lat": 34.45764525,
      "lng": -93.06209925
    },
    "state": "AR",
    "title": "Hot Springs [D]  00088",
    "icon": "img/starbucks.png"
  },{
    "position": {
      "lat": 35.821236,
      "lng": -90.66704
    },
    "state": "AR",
    "title": "Jonesboro  00089",
    "icon": "img/starbucks.png"
  },{
    "position": {
      "lat": 34.74577386,
      "lng": -92.38191429
    },
    "state": "AR",
    "title": "Little Rock  00090",
    "icon": "img/starbucks.png"
  },{
    "position": {
      "lat": 34.75204348,
      "lng": -92.4126917
    },
    "state": "AR",
    "title": "Little Rock  00091",
    "icon": "img/starbucks.png"
  },{
    "position": {
      "lat": 34.72769385,
      "lng": -92.21905583
    },
    "state": "AR",
    "title": "Little Rock [A]  00092",
    "icon": "img/starbucks.png"
  },{
    "position": {
      "lat": 34.798,
      "lng": -92.4149
    },
    "state": "AR",
    "title": "Little Rock [D]  00093",
    "icon": "img/starbucks.png"
  },{
    "position": {
      "lat": 34.75911,
      "lng": -92.379005
    },
    "state": "AR",
    "title": "Little Rock [D]  00094",
    "icon": "img/starbucks.png"
  },{
    "position": {
      "lat": 34.77140489,
      "lng": -92.35743226
    },
    "state": "AR",
    "title": "Little Rock [WD]  00095",
    "icon": "img/starbucks.png"
  },{
    "position": {
      "lat": 34.74810967,
      "lng": -92.40416376
    },
    "state": "AR",
    "title": "Little Rock [W]  00096",
    "icon": "img/starbucks.png"
  },{
    "position": {
      "lat": 34.770222,
      "lng": -92.33723
    },
    "state": "AR",
    "title": "Little Rock [W]  00097",
    "icon": "img/starbucks.png"
  },{
    "position": {
      "lat": 34.753007,
      "lng": -92.341099
    },
    "state": "AR",
    "title": "Little Rock [W]  00098",
    "icon": "img/starbucks.png"
  },{
    "position": {
      "lat": 34.7993,
      "lng": -92.2551
    },
    "state": "AR",
    "title": "North LIttle Rock [D]  00099",
    "icon": "img/starbucks.png"
  },{
    "position": {
      "lat": 34.789467,
      "lng": -92.22356
    },
    "state": "AR",
    "title": "North Little Rock  00100",
    "icon": "img/starbucks.png"
  },{
    "position": {
      "lat": 36.31955482,
      "lng": -94.18313137
    },
    "state": "AR",
    "title": "Rogers  00101",
    "icon": "img/starbucks.png"
  },{
    "position": {
      "lat": 36.3349,
      "lng": -94.179842
    },
    "state": "AR",
    "title": "Rogers [D]  00102",
    "icon": "img/starbucks.png"
  },{
    "position": {
      "lat": 36.2834,
      "lng": -94.1589
    },
    "state": "AR",
    "title": "Rogers [WD]  00103",
    "icon": "img/starbucks.png"
  },{
    "position": {
      "lat": 36.304601,
      "lng": -94.1879
    },
    "state": "AR",
    "title": "Rogers [WD]  00104",
    "icon": "img/starbucks.png"
  },{
    "position": {
      "lat": 35.466507,
      "lng": -94.356399
    },
    "state": "AR",
    "title": "Van Buren [D]  00105",
    "icon": "img/starbucks.png"
  },{
    "position": {
      "lat": 33.86405429,
      "lng": -112.1347187
    },
    "state": "AZ",
    "title": "Anthem  00106",
    "icon": "img/starbucks.png"
  },{
    "position": {
      "lat": 33.86381987,
      "lng": -112.1344948
    },
    "state": "AZ",
    "title": "Anthem [WD]  00107",
    "icon": "img/starbucks.png"
  },{
    "position": {
      "lat": 33.415339,
      "lng": -111.57396
    },
    "state": "AZ",
    "title": "Apache Junction [WD]  00108",
    "icon": "img/starbucks.png"
  },{
    "position": {
      "lat": 33.493493,
      "lng": -112.287081
    },
    "state": "AZ",
    "title": "Avondale [WD]  00109",
    "icon": "img/starbucks.png"
  },{
    "position": {
      "lat": 33.43536059,
      "lng": -112.3050986
    },
    "state": "AZ",
    "title": "Avondale [W]  00110",
    "icon": "img/starbucks.png"
  },{
    "position": {
      "lat": 33.46464844,
      "lng": -112.2753599
    },
    "state": "AZ",
    "title": "Avondale [W]  00111",
    "icon": "img/starbucks.png"
  },{
    "position": {
      "lat": 35.12158199,
      "lng": -114.5864543
    },
    "state": "AZ",
    "title": "Bullhead City  00112",
    "icon": "img/starbucks.png"
  },{
    "position": {
      "lat": 34.5658,
      "lng": -111.8655
    },
    "state": "AZ",
    "title": "Camp Verde [WD]  00113",
    "icon": "img/starbucks.png"
  },{
    "position": {
      "lat": 32.89571681,
      "lng": -111.740086
    },
    "state": "AZ",
    "title": "Casa Grande  00114",
    "icon": "img/starbucks.png"
  },{
    "position": {
      "lat": 33.21903128,
      "lng": -111.806444
    },
    "state": "AZ",
    "title": "Chandler  00115",
    "icon": "img/starbucks.png"
  },{
    "position": {
      "lat": 33.31998926,
      "lng": -111.9124763
    },
    "state": "AZ",
    "title": "Chandler  00116",
    "icon": "img/starbucks.png"
  },{
    "position": {
      "lat": 33.234573,
      "lng": -111.789399
    },
    "state": "AZ",
    "title": "Chandler  00117",
    "icon": "img/starbucks.png"
  },{
    "position": {
      "lat": 33.32087638,
      "lng": -111.8228735
    },
    "state": "AZ",
    "title": "Chandler  00118",
    "icon": "img/starbucks.png"
  },{
    "position": {
      "lat": 33.30567804,
      "lng": -111.9015716
    },
    "state": "AZ",
    "title": "Chandler  00119",
    "icon": "img/starbucks.png"
  },{
    "position": {
      "lat": 33.23378805,
      "lng": -111.8585749
    },
    "state": "AZ",
    "title": "Chandler  00120",
    "icon": "img/starbucks.png"
  },{
    "position": {
      "lat": 33.30353,
      "lng": -111.84192
    },
    "state": "AZ",
    "title": "Chandler  00121",
    "icon": "img/starbucks.png"
  },{
    "position": {
      "lat": 33.28584,
      "lng": -111.84123
    },
    "state": "AZ",
    "title": "Chandler [WD]  00122",
    "icon": "img/starbucks.png"
  },{
    "position": {
      "lat": 33.31999187,
      "lng": -111.9118504
    },
    "state": "AZ",
    "title": "Chandler [WD]  00123",
    "icon": "img/starbucks.png"
  },{
    "position": {
      "lat": 33.31760813,
      "lng": -111.9684795
    },
    "state": "AZ",
    "title": "Chandler [W]  00124",
    "icon": "img/starbucks.png"
  },{
    "position": {
      "lat": 33.30531037,
      "lng": -111.9482622
    },
    "state": "AZ",
    "title": "Chandler [W]  00125",
    "icon": "img/starbucks.png"
  },{
    "position": {
      "lat": 33.30569847,
      "lng": -111.8964975
    },
    "state": "AZ",
    "title": "Chandler [W]  00126",
    "icon": "img/starbucks.png"
  },{
    "position": {
      "lat": 33.34972709,
      "lng": -111.858732
    },
    "state": "AZ",
    "title": "Chandler [W]  00127",
    "icon": "img/starbucks.png"
  },{
    "position": {
      "lat": 33.3060856,
      "lng": -111.8746327
    },
    "state": "AZ",
    "title": "Chandler [W]  00128",
    "icon": "img/starbucks.png"
  },{
    "position": {
      "lat": 33.33595832,
      "lng": -111.8764317
    },
    "state": "AZ",
    "title": "Chandler [W]  00129",
    "icon": "img/starbucks.png"
  },{
    "position": {
      "lat": 33.26181573,
      "lng": -111.8600981
    },
    "state": "AZ",
    "title": "Chandler [W]  00130",
    "icon": "img/starbucks.png"
  },{
    "position": {
      "lat": 34.78282547,
      "lng": -112.4521866
    },
    "state": "AZ",
    "title": "Chino Valley  00131",
    "icon": "img/starbucks.png"
  },{
    "position": {
      "lat": 34.72846222,
      "lng": -112.0089493
    },
    "state": "AZ",
    "title": "Cottonwood  00132",
    "icon": "img/starbucks.png"
  },{
    "position": {
      "lat": 35.18716021,
      "lng": -111.6638424
    },
    "state": "AZ",
    "title": "Flagstaff  00133",
    "icon": "img/starbucks.png"
  },{
    "position": {
      "lat": 35.18429883,
      "lng": -111.6613874
    },
    "state": "AZ",
    "title": "Flagstaff  00134",
    "icon": "img/starbucks.png"
  },{
    "position": {
      "lat": 35.216557,
      "lng": -111.631
    },
    "state": "AZ",
    "title": "Flagstaff  00135",
    "icon": "img/starbucks.png"
  },{
    "position": {
      "lat": 35.3625,
      "lng": -111.7398
    },
    "state": "AZ",
    "title": "Flagstaff  00136",
    "icon": "img/starbucks.png"
  },{
    "position": {
      "lat": 35.188047,
      "lng": -111.661499
    },
    "state": "AZ",
    "title": "Flagstaff [WD]  00137",
    "icon": "img/starbucks.png"
  },{
    "position": {
      "lat": 35.194549,
      "lng": -111.63142
    },
    "state": "AZ",
    "title": "Flagstaff [W]  00138",
    "icon": "img/starbucks.png"
  },{
    "position": {
      "lat": 35.016058,
      "lng": -114.597999
    },
    "state": "AZ",
    "title": "Fort Mohave  00139",
    "icon": "img/starbucks.png"
  },{
    "position": {
      "lat": 33.60857565,
      "lng": -111.7299795
    },
    "state": "AZ",
    "title": "Fountain Hills  00140",
    "icon": "img/starbucks.png"
  },{
    "position": {
      "lat": 33.61019636,
      "lng": -111.7249286
    },
    "state": "AZ",
    "title": "Fountain Hills [W]  00141",
    "icon": "img/starbucks.png"
  },{
    "position": {
      "lat": 33.575834,
      "lng": -111.718697
    },
    "state": "AZ",
    "title": "Fountain Hills [W]  00142",
    "icon": "img/starbucks.png"
  },{
    "position": {
      "lat": 33.36489156,
      "lng": -111.6877649
    },
    "state": "AZ",
    "title": "Gilbert  00143",
    "icon": "img/starbucks.png"
  },{
    "position": {
      "lat": 33.3354678,
      "lng": -111.7714833
    },
    "state": "AZ",
    "title": "Gilbert  00144",
    "icon": "img/starbucks.png"
  },{
    "position": {
      "lat": 33.30648175,
      "lng": -111.7897403
    },
    "state": "AZ",
    "title": "Gilbert  00145",
    "icon": "img/starbucks.png"
  },{
    "position": {
      "lat": 33.37926425,
      "lng": -111.7249218
    },
    "state": "AZ",
    "title": "Gilbert  00146",
    "icon": "img/starbucks.png"
  },{
    "position": {
      "lat": 33.34905619,
      "lng": -111.7557216
    },
    "state": "AZ",
    "title": "Gilbert  00147",
    "icon": "img/starbucks.png"
  },{
    "position": {
      "lat": 33.32092108,
      "lng": -111.8056644
    },
    "state": "AZ",
    "title": "Gilbert  00148",
    "icon": "img/starbucks.png"
  },{
    "position": {
      "lat": 33.364,
      "lng": -111.7507
    },
    "state": "AZ",
    "title": "Gilbert [W]  00149",
    "icon": "img/starbucks.png"
  },{
    "position": {
      "lat": 33.335633,
      "lng": -111.7590113
    },
    "state": "AZ",
    "title": "Gilbert [W]  00150",
    "icon": "img/starbucks.png"
  },{
    "position": {
      "lat": 33.33537004,
      "lng": -111.8095615
    },
    "state": "AZ",
    "title": "Gilbert [W]  00151",
    "icon": "img/starbucks.png"
  },{
    "position": {
      "lat": 33.59640608,
      "lng": -112.166999
    },
    "state": "AZ",
    "title": "Glendale  00152",
    "icon": "img/starbucks.png"
  },{
    "position": {
      "lat": 33.610699,
      "lng": -112.159799
    },
    "state": "AZ",
    "title": "Glendale  00153",
    "icon": "img/starbucks.png"
  },{
    "position": {
      "lat": 33.53860232,
      "lng": -112.3556078
    },
    "state": "AZ",
    "title": "Glendale  00154",
    "icon": "img/starbucks.png"
  },{
    "position": {
      "lat": 33.67000491,
      "lng": -112.2029872
    },
    "state": "AZ",
    "title": "Glendale  00155",
    "icon": "img/starbucks.png"
  },{
    "position": {
      "lat": 33.65280991,
      "lng": -112.2374114
    },
    "state": "AZ",
    "title": "Glendale [WD]  00156",
    "icon": "img/starbucks.png"
  },{
    "position": {
      "lat": 33.69838093,
      "lng": -112.1436192
    },
    "state": "AZ",
    "title": "Glendale [W]  00157",
    "icon": "img/starbucks.png"
  },{
    "position": {
      "lat": 33.65394714,
      "lng": -112.1863216
    },
    "state": "AZ",
    "title": "Glendale [W]  00158",
    "icon": "img/starbucks.png"
  },{
    "position": {
      "lat": 33.61081108,
      "lng": -112.1855156
    },
    "state": "AZ",
    "title": "Glendale [W]  00159",
    "icon": "img/starbucks.png"
  },{
    "position": {
      "lat": 33.63835723,
      "lng": -112.2176653
    },
    "state": "AZ",
    "title": "Glendale [W]  00160",
    "icon": "img/starbucks.png"
  },{
    "position": {
      "lat": 33.63960715,
      "lng": -112.224434
    },
    "state": "AZ",
    "title": "Glendale [W]  00161",
    "icon": "img/starbucks.png"
  },{
    "position": {
      "lat": 33.49345981,
      "lng": -112.3753049
    },
    "state": "AZ",
    "title": "Goodyear  00162",
    "icon": "img/starbucks.png"
  },{
    "position": {
      "lat": 33.451464,
      "lng": -112.392599
    },
    "state": "AZ",
    "title": "Goodyear  00163",
    "icon": "img/starbucks.png"
  },{
    "position": {
      "lat": 33.48026748,
      "lng": -112.3583262
    },
    "state": "AZ",
    "title": "Goodyear  00164",
    "icon": "img/starbucks.png"
  },{
    "position": {
      "lat": 33.46160901,
      "lng": -112.3580189
    },
    "state": "AZ",
    "title": "Goodyear [W]  00165",
    "icon": "img/starbucks.png"
  },{
    "position": {
      "lat": 31.85233448,
      "lng": -110.9987224
    },
    "state": "AZ",
    "title": "Green Valley  00166",
    "icon": "img/starbucks.png"
  },{
    "position": {
      "lat": 33.28825881,
      "lng": -111.6862971
    },
    "state": "AZ",
    "title": "Higley [W]  00167",
    "icon": "img/starbucks.png"
  },{
    "position": {
      "lat": 35.23700997,
      "lng": -114.0374472
    },
    "state": "AZ",
    "title": "Kingman  00168",
    "icon": "img/starbucks.png"
  },{
    "position": {
      "lat": 34.478282,
      "lng": -114.337554
    },
    "state": "AZ",
    "title": "Lake Havasu City  00169",
    "icon": "img/starbucks.png"
  },{
    "position": {
      "lat": 34.47318734,
      "lng": -114.342988
    },
    "state": "AZ",
    "title": "Lake Havasu City [W]  00170",
    "icon": "img/starbucks.png"
  },{
    "position": {
      "lat": 34.14205054,
      "lng": -109.955309
    },
    "state": "AZ",
    "title": "Lakeside  00171",
    "icon": "img/starbucks.png"
  },{
    "position": {
      "lat": 33.37746449,
      "lng": -112.1692939
    },
    "state": "AZ",
    "title": "Laveen [W]  00172",
    "icon": "img/starbucks.png"
  },{
    "position": {
      "lat": 32.4409,
      "lng": -111.239105
    },
    "state": "AZ",
    "title": "Marana  00173",
    "icon": "img/starbucks.png"
  },{
    "position": {
      "lat": 32.4354,
      "lng": -111.2598
    },
    "state": "AZ",
    "title": "Marana  00174",
    "icon": "img/starbucks.png"
  },{
    "position": {
      "lat": 32.3374794,
      "lng": -111.0500991
    },
    "state": "AZ",
    "title": "Marana [WD]  00175",
    "icon": "img/starbucks.png"
  },{
    "position": {
      "lat": 33.46544574,
      "lng": -111.6840687
    },
    "state": "AZ",
    "title": "Mesa  00176",
    "icon": "img/starbucks.png"
  },{
    "position": {
      "lat": 33.378662,
      "lng": -111.599266
    },
    "state": "AZ",
    "title": "Mesa  00177",
    "icon": "img/starbucks.png"
  },{
    "position": {
      "lat": 33.37899985,
      "lng": -111.6261939
    },
    "state": "AZ",
    "title": "Mesa  00178",
    "icon": "img/starbucks.png"
  },{
    "position": {
      "lat": 33.42328203,
      "lng": -111.8051231
    },
    "state": "AZ",
    "title": "Mesa  00179",
    "icon": "img/starbucks.png"
  },{
    "position": {
      "lat": 33.45479248,
      "lng": -111.6840841
    },
    "state": "AZ",
    "title": "Mesa  00180",
    "icon": "img/starbucks.png"
  },{
    "position": {
      "lat": 33.4226701,
      "lng": -111.7718998
    },
    "state": "AZ",
    "title": "Mesa  00181",
    "icon": "img/starbucks.png"
  },{
    "position": {
      "lat": 33.39379889,
      "lng": -111.7532534
    },
    "state": "AZ",
    "title": "Mesa  00182",
    "icon": "img/starbucks.png"
  },{
    "position": {
      "lat": 33.33250477,
      "lng": -111.6870689
    },
    "state": "AZ",
    "title": "Mesa  00183",
    "icon": "img/starbucks.png"
  },{
    "position": {
      "lat": 33.37909008,
      "lng": -111.6375432
    },
    "state": "AZ",
    "title": "Mesa  00184",
    "icon": "img/starbucks.png"
  },{
    "position": {
      "lat": 33.3814,
      "lng": -111.8747
    },
    "state": "AZ",
    "title": "Mesa West  00185",
    "icon": "img/starbucks.png"
  },{
    "position": {
      "lat": 33.37831827,
      "lng": -111.6361908
    },
    "state": "AZ",
    "title": "Mesa [WD]  00186",
    "icon": "img/starbucks.png"
  },{
    "position": {
      "lat": 33.46678288,
      "lng": -111.6840636
    },
    "state": "AZ",
    "title": "Mesa [WD]  00187",
    "icon": "img/starbucks.png"
  },{
    "position": {
      "lat": 33.38021706,
      "lng": -111.7538886
    },
    "state": "AZ",
    "title": "Mesa [WD]  00188",
    "icon": "img/starbucks.png"
  },{
    "position": {
      "lat": 33.3937,
      "lng": -111.755104
    },
    "state": "AZ",
    "title": "Mesa [WD]  00189",
    "icon": "img/starbucks.png"
  },{
    "position": {
      "lat": 33.37902519,
      "lng": -111.7874795
    },
    "state": "AZ",
    "title": "Mesa [W]  00190",
    "icon": "img/starbucks.png"
  },{
    "position": {
      "lat": 33.37826704,
      "lng": -111.687991
    },
    "state": "AZ",
    "title": "Mesa [W]  00191",
    "icon": "img/starbucks.png"
  },{
    "position": {
      "lat": 33.38388487,
      "lng": -111.874783
    },
    "state": "AZ",
    "title": "Mesa [W]  00192",
    "icon": "img/starbucks.png"
  },{
    "position": {
      "lat": 33.39311451,
      "lng": -111.861856
    },
    "state": "AZ",
    "title": "Mesa [W]  00193",
    "icon": "img/starbucks.png"
  },{
    "position": {
      "lat": 33.38418881,
      "lng": -111.8054634
    },
    "state": "AZ",
    "title": "Mesa [W]  00194",
    "icon": "img/starbucks.png"
  },{
    "position": {
      "lat": 32.4272998,
      "lng": -110.9629869
    },
    "state": "AZ",
    "title": "Oro Valley  00195",
    "icon": "img/starbucks.png"
  },{
    "position": {
      "lat": 32.41179186,
      "lng": -110.939853
    },
    "state": "AZ",
    "title": "Oro Valley [W]  00196",
    "icon": "img/starbucks.png"
  },{
    "position": {
      "lat": 34.154358,
      "lng": -114.279904
    },
    "state": "AZ",
    "title": "Parker  00197",
    "icon": "img/starbucks.png"
  },{
    "position": {
      "lat": 34.24052,
      "lng": -111.31757
    },
    "state": "AZ",
    "title": "Payson  00198",
    "icon": "img/starbucks.png"
  },{
    "position": {
      "lat": 33.56562937,
      "lng": -112.2888222
    },
    "state": "AZ",
    "title": "Peoria  00199",
    "icon": "img/starbucks.png"
  },{
    "position": {
      "lat": 33.68161278,
      "lng": -112.236554
    },
    "state": "AZ",
    "title": "Peoria  00200",
    "icon": "img/starbucks.png"
  },{
    "position": {
      "lat": 33.59583208,
      "lng": -112.2220298
    },
    "state": "AZ",
    "title": "Peoria  00201",
    "icon": "img/starbucks.png"
  },{
    "position": {
      "lat": 33.67387,
      "lng": -112.238329
    },
    "state": "AZ",
    "title": "Peoria  00202",
    "icon": "img/starbucks.png"
  },{
    "position": {
      "lat": 33.63803903,
      "lng": -112.250954
    },
    "state": "AZ",
    "title": "Peoria [W]  00203",
    "icon": "img/starbucks.png"
  },{
    "position": {
      "lat": 33.61039102,
      "lng": -112.220411
    },
    "state": "AZ",
    "title": "Peoria [W]  00204",
    "icon": "img/starbucks.png"
  },{
    "position": {
      "lat": 33.67893289,
      "lng": -111.9773444
    },
    "state": "AZ",
    "title": "Phoenix  00205",
    "icon": "img/starbucks.png"
  },{
    "position": {
      "lat": 33.6540053,
      "lng": -112.0309058
    },
    "state": "AZ",
    "title": "Phoenix  00206",
    "icon": "img/starbucks.png"
  },{
    "position": {
      "lat": 33.4468558,
      "lng": -112.0710621
    },
    "state": "AZ",
    "title": "Phoenix  00207",
    "icon": "img/starbucks.png"
  },{
    "position": {
      "lat": 33.7983738,
      "lng": -112.1272521
    },
    "state": "AZ",
    "title": "Phoenix  00208",
    "icon": "img/starbucks.png"
  },{
    "position": {
      "lat": 33.6852244,
      "lng": -111.965987
    },
    "state": "AZ",
    "title": "Phoenix  00209",
    "icon": "img/starbucks.png"
  },{
    "position": {
      "lat": 33.4624,
      "lng": -112.0693
    },
    "state": "AZ",
    "title": "Phoenix  00210",
    "icon": "img/starbucks.png"
  },{
    "position": {
      "lat": 33.44834,
      "lng": -112.07656
    },
    "state": "AZ",
    "title": "Phoenix  00211",
    "icon": "img/starbucks.png"
  },{
    "position": {
      "lat": 33.3061,
      "lng": -112.0548
    },
    "state": "AZ",
    "title": "Phoenix  00212",
    "icon": "img/starbucks.png"
  },{
    "position": {
      "lat": 33.4658,
      "lng": -112.0686
    },
    "state": "AZ",
    "title": "Phoenix  00213",
    "icon": "img/starbucks.png"
  },{
    "position": {
      "lat": 33.6114,
      "lng": -112.0147
    },
    "state": "AZ",
    "title": "Phoenix  00214",
    "icon": "img/starbucks.png"
  },{
    "position": {
      "lat": 33.50986629,
      "lng": -112.014976
    },
    "state": "AZ",
    "title": "Phoenix  00215",
    "icon": "img/starbucks.png"
  },{
    "position": {
      "lat": 33.30504059,
      "lng": -111.9970579
    },
    "state": "AZ",
    "title": "Phoenix  00216",
    "icon": "img/starbucks.png"
  },{
    "position": {
      "lat": 33.75632629,
      "lng": -111.9903477
    },
    "state": "AZ",
    "title": "Phoenix  00217",
    "icon": "img/starbucks.png"
  },{
    "position": {
      "lat": 33.49451344,
      "lng": -111.9794966
    },
    "state": "AZ",
    "title": "Phoenix  00218",
    "icon": "img/starbucks.png"
  },{
    "position": {
      "lat": 33.48751933,
      "lng": -112.0815738
    },
    "state": "AZ",
    "title": "Phoenix  00219",
    "icon": "img/starbucks.png"
  },{
    "position": {
      "lat": 33.53819933,
      "lng": -112.0627498
    },
    "state": "AZ",
    "title": "Phoenix  00220",
    "icon": "img/starbucks.png"
  },{
    "position": {
      "lat": 33.34882,
      "lng": -111.98146
    },
    "state": "AZ",
    "title": "Phoenix  00221",
    "icon": "img/starbucks.png"
  },{
    "position": {
      "lat": 33.3904,
      "lng": -112.0475
    },
    "state": "AZ",
    "title": "Phoenix  00222",
    "icon": "img/starbucks.png"
  },{
    "position": {
      "lat": 33.48043,
      "lng": -112.0792
    },
    "state": "AZ",
    "title": "Phoenix  00223",
    "icon": "img/starbucks.png"
  },{
    "position": {
      "lat": 33.64060689,
      "lng": -111.977693
    },
    "state": "AZ",
    "title": "Phoenix  00224",
    "icon": "img/starbucks.png"
  },{
    "position": {
      "lat": 33.4522,
      "lng": -112.0784
    },
    "state": "AZ",
    "title": "Phoenix  00225",
    "icon": "img/starbucks.png"
  },{
    "position": {
      "lat": 33.599728,
      "lng": -111.98813
    },
    "state": "AZ",
    "title": "Phoenix  00226",
    "icon": "img/starbucks.png"
  },{
    "position": {
      "lat": 33.47661835,
      "lng": -112.2175287
    },
    "state": "AZ",
    "title": "Phoenix  00227",
    "icon": "img/starbucks.png"
  },{
    "position": {
      "lat": 33.3777377,
      "lng": -112.0359959
    },
    "state": "AZ",
    "title": "Phoenix  00228",
    "icon": "img/starbucks.png"
  },{
    "position": {
      "lat": 33.4800915,
      "lng": -111.98479
    },
    "state": "AZ",
    "title": "Phoenix  00229",
    "icon": "img/starbucks.png"
  },{
    "position": {
      "lat": 33.43494437,
      "lng": -112.0081158
    },
    "state": "AZ",
    "title": "Phoenix [A]  00230",
    "icon": "img/starbucks.png"
  },{
    "position": {
      "lat": 33.515962,
      "lng": -112.082479
    },
    "state": "AZ",
    "title": "Phoenix [D]  00231",
    "icon": "img/starbucks.png"
  },{
    "position": {
      "lat": 33.52370909,
      "lng": -112.0473477
    },
    "state": "AZ",
    "title": "Phoenix [WD]  00232",
    "icon": "img/starbucks.png"
  },{
    "position": {
      "lat": 33.64059753,
      "lng": -112.0109838
    },
    "state": "AZ",
    "title": "Phoenix [WD]  00233",
    "icon": "img/starbucks.png"
  },{
    "position": {
      "lat": 33.3777377,
      "lng": -112.0316793
    },
    "state": "AZ",
    "title": "Phoenix [WD]  00234",
    "icon": "img/starbucks.png"
  },{
    "position": {
      "lat": 33.6402,
      "lng": -112.070152
    },
    "state": "AZ",
    "title": "Phoenix [WD]  00235",
    "icon": "img/starbucks.png"
  },{
    "position": {
      "lat": 33.61082474,
      "lng": -112.1469592
    },
    "state": "AZ",
    "title": "Phoenix [WD]  00236",
    "icon": "img/starbucks.png"
  },{
    "position": {
      "lat": 33.52396181,
      "lng": -112.1301364
    },
    "state": "AZ",
    "title": "Phoenix [WD]  00237",
    "icon": "img/starbucks.png"
  },{
    "position": {
      "lat": 33.62643855,
      "lng": -111.9956363
    },
    "state": "AZ",
    "title": "Phoenix [WD]  00238",
    "icon": "img/starbucks.png"
  },{
    "position": {
      "lat": 33.30520451,
      "lng": -111.9845919
    },
    "state": "AZ",
    "title": "Phoenix [WD]  00239",
    "icon": "img/starbucks.png"
  },{
    "position": {
      "lat": 33.517704,
      "lng": -112.064999
    },
    "state": "AZ",
    "title": "Phoenix [WD]  00240",
    "icon": "img/starbucks.png"
  },{
    "position": {
      "lat": 33.465897,
      "lng": -112.220619
    },
    "state": "AZ",
    "title": "Phoenix [WD]  00241",
    "icon": "img/starbucks.png"
  },{
    "position": {
      "lat": 33.478552,
      "lng": -112.255199
    },
    "state": "AZ",
    "title": "Phoenix [WD]  00242",
    "icon": "img/starbucks.png"
  },{
    "position": {
      "lat": 33.50830018,
      "lng": -112.2731264
    },
    "state": "AZ",
    "title": "Phoenix [WD]  00243",
    "icon": "img/starbucks.png"
  },{
    "position": {
      "lat": 33.67922567,
      "lng": -111.9774476
    },
    "state": "AZ",
    "title": "Phoenix [WD]  00244",
    "icon": "img/starbucks.png"
  },{
    "position": {
      "lat": 33.50921915,
      "lng": -112.0464455
    },
    "state": "AZ",
    "title": "Phoenix [W]  00245",
    "icon": "img/starbucks.png"
  },{
    "position": {
      "lat": 33.55299694,
      "lng": -112.0984785
    },
    "state": "AZ",
    "title": "Phoenix [W]  00246",
    "icon": "img/starbucks.png"
  },{
    "position": {
      "lat": 33.50927007,
      "lng": -112.0305933
    },
    "state": "AZ",
    "title": "Phoenix [W]  00247",
    "icon": "img/starbucks.png"
  },{
    "position": {
      "lat": 33.45233361,
      "lng": -112.0699078
    },
    "state": "AZ",
    "title": "Phoenix [W]  00248",
    "icon": "img/starbucks.png"
  },{
    "position": {
      "lat": 33.58185449,
      "lng": -112.121387
    },
    "state": "AZ",
    "title": "Phoenix [W]  00249",
    "icon": "img/starbucks.png"
  },{
    "position": {
      "lat": 33.49473543,
      "lng": -111.987768
    },
    "state": "AZ",
    "title": "Phoenix [W]  00250",
    "icon": "img/starbucks.png"
  },{
    "position": {
      "lat": 33.79912281,
      "lng": -111.9779393
    },
    "state": "AZ",
    "title": "Phoenix [W]  00251",
    "icon": "img/starbucks.png"
  },{
    "position": {
      "lat": 33.466037,
      "lng": -112.080765
    },
    "state": "AZ",
    "title": "Phoenix [W]  00252",
    "icon": "img/starbucks.png"
  },{
    "position": {
      "lat": 33.67081429,
      "lng": -112.2029872
    },
    "state": "AZ",
    "title": "Phoenix [W]  00253",
    "icon": "img/starbucks.png"
  },{
    "position": {
      "lat": 33.60684615,
      "lng": -112.0651608
    },
    "state": "AZ",
    "title": "Phoenix [W]  00254",
    "icon": "img/starbucks.png"
  },{
    "position": {
      "lat": 33.50935886,
      "lng": -112.0285988
    },
    "state": "AZ",
    "title": "Phoenix [W]  00255",
    "icon": "img/starbucks.png"
  },{
    "position": {
      "lat": 33.52661192,
      "lng": -111.9256816
    },
    "state": "AZ",
    "title": "Phoenix [W]  00256",
    "icon": "img/starbucks.png"
  },{
    "position": {
      "lat": 33.44932599,
      "lng": -112.0724875
    },
    "state": "AZ",
    "title": "Phoenix [W]  00257",
    "icon": "img/starbucks.png"
  },{
    "position": {
      "lat": 33.71280288,
      "lng": -112.100029
    },
    "state": "AZ",
    "title": "Phoenix [W]  00258",
    "icon": "img/starbucks.png"
  },{
    "position": {
      "lat": 33.48396422,
      "lng": -112.0736849
    },
    "state": "AZ",
    "title": "Phoenix [W]  00259",
    "icon": "img/starbucks.png"
  },{
    "position": {
      "lat": 33.677,
      "lng": -112.1057
    },
    "state": "AZ",
    "title": "Phoenix [W]  00260",
    "icon": "img/starbucks.png"
  },{
    "position": {
      "lat": 33.59980423,
      "lng": -111.9839362
    },
    "state": "AZ",
    "title": "Phoenix [W]  00261",
    "icon": "img/starbucks.png"
  },{
    "position": {
      "lat": 33.62230287,
      "lng": -111.9258318
    },
    "state": "AZ",
    "title": "Phoenix [W]  00262",
    "icon": "img/starbucks.png"
  },{
    "position": {
      "lat": 33.65523804,
      "lng": -111.9296431
    },
    "state": "AZ",
    "title": "Phoenix [W]  00263",
    "icon": "img/starbucks.png"
  },{
    "position": {
      "lat": 33.67736785,
      "lng": -111.9773793
    },
    "state": "AZ",
    "title": "Phoenix [W]  00264",
    "icon": "img/starbucks.png"
  },{
    "position": {
      "lat": 33.64061119,
      "lng": -111.9787931
    },
    "state": "AZ",
    "title": "Phoenix [W]  00265",
    "icon": "img/starbucks.png"
  },{
    "position": {
      "lat": 33.58299855,
      "lng": -111.9778096
    },
    "state": "AZ",
    "title": "Phoenix [W]  00266",
    "icon": "img/starbucks.png"
  },{
    "position": {
      "lat": 33.61096475,
      "lng": -111.9778096
    },
    "state": "AZ",
    "title": "Phoenix [W]  00267",
    "icon": "img/starbucks.png"
  },{
    "position": {
      "lat": 34.55943317,
      "lng": -112.4821283
    },
    "state": "AZ",
    "title": "Prescott  00268",
    "icon": "img/starbucks.png"
  },{
    "position": {
      "lat": 34.58534588,
      "lng": -112.3307391
    },
    "state": "AZ",
    "title": "Prescott Valley  00269",
    "icon": "img/starbucks.png"
  },{
    "position": {
      "lat": 34.56263,
      "lng": -112.48826
    },
    "state": "AZ",
    "title": "Prescott [D]  00270",
    "icon": "img/starbucks.png"
  },{
    "position": {
      "lat": 34.546028,
      "lng": -112.46997
    },
    "state": "AZ",
    "title": "Prescott [W]  00271",
    "icon": "img/starbucks.png"
  },{
    "position": {
      "lat": 33.23293,
      "lng": -111.68596
    },
    "state": "AZ",
    "title": "Queen Creek  00272",
    "icon": "img/starbucks.png"
  },{
    "position": {
      "lat": 33.2631914,
      "lng": -111.6346988
    },
    "state": "AZ",
    "title": "Queen Creek  00273",
    "icon": "img/starbucks.png"
  },{
    "position": {
      "lat": 31.9555,
      "lng": -110.9937
    },
    "state": "AZ",
    "title": "Sahuarita  00274",
    "icon": "img/starbucks.png"
  },{
    "position": {
      "lat": 33.62960993,
      "lng": -111.8873665
    },
    "state": "AZ",
    "title": "Scottsdale  00275",
    "icon": "img/starbucks.png"
  },{
    "position": {
      "lat": 33.5095706,
      "lng": -111.9260026
    },
    "state": "AZ",
    "title": "Scottsdale  00276",
    "icon": "img/starbucks.png"
  },{
    "position": {
      "lat": 33.5895922,
      "lng": -111.83456
    },
    "state": "AZ",
    "title": "Scottsdale  00277",
    "icon": "img/starbucks.png"
  },{
    "position": {
      "lat": 33.62586,
      "lng": -111.97624
    },
    "state": "AZ",
    "title": "Scottsdale  00278",
    "icon": "img/starbucks.png"
  },{
    "position": {
      "lat": 33.58770455,
      "lng": -111.8386581
    },
    "state": "AZ",
    "title": "Scottsdale  00279",
    "icon": "img/starbucks.png"
  },{
    "position": {
      "lat": 33.62030812,
      "lng": -111.8742036
    },
    "state": "AZ",
    "title": "Scottsdale  00280",
    "icon": "img/starbucks.png"
  },{
    "position": {
      "lat": 33.62532392,
      "lng": -111.9402159
    },
    "state": "AZ",
    "title": "Scottsdale  00281",
    "icon": "img/starbucks.png"
  },{
    "position": {
      "lat": 33.4949,
      "lng": -111.908011
    },
    "state": "AZ",
    "title": "Scottsdale  00282",
    "icon": "img/starbucks.png"
  },{
    "position": {
      "lat": 33.50925641,
      "lng": -111.9104844
    },
    "state": "AZ",
    "title": "Scottsdale  00283",
    "icon": "img/starbucks.png"
  },{
    "position": {
      "lat": 33.67550663,
      "lng": -111.8906495
    },
    "state": "AZ",
    "title": "Scottsdale  00284",
    "icon": "img/starbucks.png"
  },{
    "position": {
      "lat": 33.58459,
      "lng": -111.925735
    },
    "state": "AZ",
    "title": "Scottsdale  00285",
    "icon": "img/starbucks.png"
  },{
    "position": {
      "lat": 33.62535938,
      "lng": -111.8786489
    },
    "state": "AZ",
    "title": "Scottsdale  00286",
    "icon": "img/starbucks.png"
  },{
    "position": {
      "lat": 33.6386133,
      "lng": -111.9254028
    },
    "state": "AZ",
    "title": "Scottsdale  00287",
    "icon": "img/starbucks.png"
  },{
    "position": {
      "lat": 33.58247141,
      "lng": -111.880491
    },
    "state": "AZ",
    "title": "Scottsdale [WD]  00288",
    "icon": "img/starbucks.png"
  },{
    "position": {
      "lat": 33.623804,
      "lng": -111.895495
    },
    "state": "AZ",
    "title": "Scottsdale [WD]  00289",
    "icon": "img/starbucks.png"
  },{
    "position": {
      "lat": 33.48593131,
      "lng": -111.9089886
    },
    "state": "AZ",
    "title": "Scottsdale [WD]  00290",
    "icon": "img/starbucks.png"
  },{
    "position": {
      "lat": 33.62252143,
      "lng": -111.8743663
    },
    "state": "AZ",
    "title": "Scottsdale [W]  00291",
    "icon": "img/starbucks.png"
  },{
    "position": {
      "lat": 33.5745052,
      "lng": -111.8627072
    },
    "state": "AZ",
    "title": "Scottsdale [W]  00292",
    "icon": "img/starbucks.png"
  },{
    "position": {
      "lat": 33.78484088,
      "lng": -111.9259138
    },
    "state": "AZ",
    "title": "Scottsdale [W]  00293",
    "icon": "img/starbucks.png"
  },{
    "position": {
      "lat": 33.53869452,
      "lng": -111.9255723
    },
    "state": "AZ",
    "title": "Scottsdale [W]  00294",
    "icon": "img/starbucks.png"
  },{
    "position": {
      "lat": 33.69834678,
      "lng": -111.8885458
    },
    "state": "AZ",
    "title": "Scottsdale [W]  00295",
    "icon": "img/starbucks.png"
  },{
    "position": {
      "lat": 33.69990065,
      "lng": -111.9253127
    },
    "state": "AZ",
    "title": "Scottsdale [W]  00296",
    "icon": "img/starbucks.png"
  },{
    "position": {
      "lat": 33.50213935,
      "lng": -111.9303876
    },
    "state": "AZ",
    "title": "Scottsdale [W]  00297",
    "icon": "img/starbucks.png"
  },{
    "position": {
      "lat": 33.6294632,
      "lng": -111.8873901
    },
    "state": "AZ",
    "title": "Scottsdale [W]  00298",
    "icon": "img/starbucks.png"
  },{
    "position": {
      "lat": 33.4942174,
      "lng": -111.9260888
    },
    "state": "AZ",
    "title": "Scottsdale [W]  00299",
    "icon": "img/starbucks.png"
  },{
    "position": {
      "lat": 33.47988318,
      "lng": -111.9260845
    },
    "state": "AZ",
    "title": "Scottsdale [W]  00300",
    "icon": "img/starbucks.png"
  },{
    "position": {
      "lat": 34.86332434,
      "lng": -111.8000812
    },
    "state": "AZ",
    "title": "Sedona  00301",
    "icon": "img/starbucks.png"
  },{
    "position": {
      "lat": 34.8662,
      "lng": -111.76359
    },
    "state": "AZ",
    "title": "Sedona [W]  00302",
    "icon": "img/starbucks.png"
  },{
    "position": {
      "lat": 34.23864889,
      "lng": -110.0616819
    },
    "state": "AZ",
    "title": "Show Low  00303",
    "icon": "img/starbucks.png"
  },{
    "position": {
      "lat": 31.55462735,
      "lng": -110.2759156
    },
    "state": "AZ",
    "title": "Sierra Vista  00304",
    "icon": "img/starbucks.png"
  },{
    "position": {
      "lat": 31.551,
      "lng": -110.1411
    },
    "state": "AZ",
    "title": "Sierra Vista  00305",
    "icon": "img/starbucks.png"
  },{
    "position": {
      "lat": 33.656757,
      "lng": -112.351061
    },
    "state": "AZ",
    "title": "Sun City West  00306",
    "icon": "img/starbucks.png"
  },{
    "position": {
      "lat": 33.63787912,
      "lng": -112.2760361
    },
    "state": "AZ",
    "title": "Sun City [W]  00307",
    "icon": "img/starbucks.png"
  },{
    "position": {
      "lat": 33.63889681,
      "lng": -112.425426
    },
    "state": "AZ",
    "title": "Surprise  00308",
    "icon": "img/starbucks.png"
  },{
    "position": {
      "lat": 33.63349072,
      "lng": -112.3436755
    },
    "state": "AZ",
    "title": "Surprise  00309",
    "icon": "img/starbucks.png"
  },{
    "position": {
      "lat": 33.60932,
      "lng": -112.35792
    },
    "state": "AZ",
    "title": "Surprise  00310",
    "icon": "img/starbucks.png"
  },{
    "position": {
      "lat": 33.63881144,
      "lng": -112.4319625
    },
    "state": "AZ",
    "title": "Surprise  00311",
    "icon": "img/starbucks.png"
  },{
    "position": {
      "lat": 33.6388,
      "lng": -112.390409
    },
    "state": "AZ",
    "title": "Surprise [W]  00312",
    "icon": "img/starbucks.png"
  },{
    "position": {
      "lat": 33.63864751,
      "lng": -112.3551297
    },
    "state": "AZ",
    "title": "Surprise [W]  00313",
    "icon": "img/starbucks.png"
  },{
    "position": {
      "lat": 33.36383659,
      "lng": -111.9301883
    },
    "state": "AZ",
    "title": "Tempe  00314",
    "icon": "img/starbucks.png"
  },{
    "position": {
      "lat": 33.41351082,
      "lng": -111.9327098
    },
    "state": "AZ",
    "title": "Tempe  00315",
    "icon": "img/starbucks.png"
  },{
    "position": {
      "lat": 33.4172,
      "lng": -111.9318
    },
    "state": "AZ",
    "title": "Tempe  00316",
    "icon": "img/starbucks.png"
  },{
    "position": {
      "lat": 33.41828512,
      "lng": -111.9311116
    },
    "state": "AZ",
    "title": "Tempe  00317",
    "icon": "img/starbucks.png"
  },{
    "position": {
      "lat": 33.42189146,
      "lng": -111.9343286
    },
    "state": "AZ",
    "title": "Tempe  00318",
    "icon": "img/starbucks.png"
  },{
    "position": {
      "lat": 33.407737,
      "lng": -111.925518
    },
    "state": "AZ",
    "title": "Tempe  00319",
    "icon": "img/starbucks.png"
  },{
    "position": {
      "lat": 33.34918409,
      "lng": -111.9140702
    },
    "state": "AZ",
    "title": "Tempe  00320",
    "icon": "img/starbucks.png"
  },{
    "position": {
      "lat": 33.42184023,
      "lng": -111.9512811
    },
    "state": "AZ",
    "title": "Tempe  00321",
    "icon": "img/starbucks.png"
  },{
    "position": {
      "lat": 33.4412004,
      "lng": -111.9552563
    },
    "state": "AZ",
    "title": "Tempe [WD]  00322",
    "icon": "img/starbucks.png"
  },{
    "position": {
      "lat": 33.36380411,
      "lng": -111.9105527
    },
    "state": "AZ",
    "title": "Tempe [WD]  00323",
    "icon": "img/starbucks.png"
  },{
    "position": {
      "lat": 33.450393,
      "lng": -111.926499
    },
    "state": "AZ",
    "title": "Tempe [WD]  00324",
    "icon": "img/starbucks.png"
  },{
    "position": {
      "lat": 33.38474206,
      "lng": -111.9670042
    },
    "state": "AZ",
    "title": "Tempe [W]  00325",
    "icon": "img/starbucks.png"
  },{
    "position": {
      "lat": 33.34907823,
      "lng": -111.9648527
    },
    "state": "AZ",
    "title": "Tempe [W]  00326",
    "icon": "img/starbucks.png"
  },{
    "position": {
      "lat": 33.39388768,
      "lng": -111.9090705
    },
    "state": "AZ",
    "title": "Tempe [W]  00327",
    "icon": "img/starbucks.png"
  },{
    "position": {
      "lat": 33.42616374,
      "lng": -111.9400045
    },
    "state": "AZ",
    "title": "Tempe [W]  00328",
    "icon": "img/starbucks.png"
  },{
    "position": {
      "lat": 33.37850268,
      "lng": -111.9286663
    },
    "state": "AZ",
    "title": "Tempe [W]  00329",
    "icon": "img/starbucks.png"
  },{
    "position": {
      "lat": 33.41015719,
      "lng": -112.2723273
    },
    "state": "AZ",
    "title": "Tolleson [WD]  00330",
    "icon": "img/starbucks.png"
  },{
    "position": {
      "lat": 32.23940075,
      "lng": -111.0061229
    },
    "state": "AZ",
    "title": "Tucson  00331",
    "icon": "img/starbucks.png"
  },{
    "position": {
      "lat": 32.29932614,
      "lng": -110.9952047
    },
    "state": "AZ",
    "title": "Tucson  00332",
    "icon": "img/starbucks.png"
  },{
    "position": {
      "lat": 32.30506674,
      "lng": -111.0119935
    },
    "state": "AZ",
    "title": "Tucson  00333",
    "icon": "img/starbucks.png"
  },{
    "position": {
      "lat": 32.182236,
      "lng": -110.8767
    },
    "state": "AZ",
    "title": "Tucson  00334",
    "icon": "img/starbucks.png"
  },{
    "position": {
      "lat": 32.221264,
      "lng": -110.9432
    },
    "state": "AZ",
    "title": "Tucson  00335",
    "icon": "img/starbucks.png"
  },{
    "position": {
      "lat": 32.2578,
      "lng": -110.7974
    },
    "state": "AZ",
    "title": "Tucson  00336",
    "icon": "img/starbucks.png"
  },{
    "position": {
      "lat": 32.220764,
      "lng": -110.805565
    },
    "state": "AZ",
    "title": "Tucson  00337",
    "icon": "img/starbucks.png"
  },{
    "position": {
      "lat": 32.1339,
      "lng": -111.00871
    },
    "state": "AZ",
    "title": "Tucson  00338",
    "icon": "img/starbucks.png"
  },{
    "position": {
      "lat": 32.33538253,
      "lng": -110.9774191
    },
    "state": "AZ",
    "title": "Tucson  00339",
    "icon": "img/starbucks.png"
  },{
    "position": {
      "lat": 32.119,
      "lng": -110.799695
    },
    "state": "AZ",
    "title": "Tucson  00340",
    "icon": "img/starbucks.png"
  },{
    "position": {
      "lat": 32.30839304,
      "lng": -110.8913519
    },
    "state": "AZ",
    "title": "Tucson  00341",
    "icon": "img/starbucks.png"
  },{
    "position": {
      "lat": 32.20708767,
      "lng": -111.0399153
    },
    "state": "AZ",
    "title": "Tucson  00342",
    "icon": "img/starbucks.png"
  },{
    "position": {
      "lat": 32.2066198,
      "lng": -110.7870344
    },
    "state": "AZ",
    "title": "Tucson  00343",
    "icon": "img/starbucks.png"
  },{
    "position": {
      "lat": 32.22158475,
      "lng": -110.9137549
    },
    "state": "AZ",
    "title": "Tucson  00344",
    "icon": "img/starbucks.png"
  },{
    "position": {
      "lat": 32.3374794,
      "lng": -111.0490882
    },
    "state": "AZ",
    "title": "Tucson  00345",
    "icon": "img/starbucks.png"
  },{
    "position": {
      "lat": 32.221421,
      "lng": -110.944887
    },
    "state": "AZ",
    "title": "Tucson [D]  00346",
    "icon": "img/starbucks.png"
  },{
    "position": {
      "lat": 32.2217,
      "lng": -110.919687
    },
    "state": "AZ",
    "title": "Tucson [D]  00347",
    "icon": "img/starbucks.png"
  },{
    "position": {
      "lat": 32.22095979,
      "lng": -110.8371748
    },
    "state": "AZ",
    "title": "Tucson [WD]  00348",
    "icon": "img/starbucks.png"
  },{
    "position": {
      "lat": 32.3301,
      "lng": -111.1571
    },
    "state": "AZ",
    "title": "Tucson [WD]  00349",
    "icon": "img/starbucks.png"
  },{
    "position": {
      "lat": 32.33618072,
      "lng": -110.9776652
    },
    "state": "AZ",
    "title": "Tucson [WD]  00350",
    "icon": "img/starbucks.png"
  },{
    "position": {
      "lat": 32.16325493,
      "lng": -110.9912844
    },
    "state": "AZ",
    "title": "Tucson [WD]  00351",
    "icon": "img/starbucks.png"
  },{
    "position": {
      "lat": 32.23603401,
      "lng": -110.8584782
    },
    "state": "AZ",
    "title": "Tucson [WD]  00352",
    "icon": "img/starbucks.png"
  },{
    "position": {
      "lat": 32.2075692,
      "lng": -110.7891449
    },
    "state": "AZ",
    "title": "Tucson [W]  00353",
    "icon": "img/starbucks.png"
  },{
    "position": {
      "lat": 32.20636026,
      "lng": -110.8434517
    },
    "state": "AZ",
    "title": "Tucson [W]  00354",
    "icon": "img/starbucks.png"
  },{
    "position": {
      "lat": 32.22008894,
      "lng": -110.7726841
    },
    "state": "AZ",
    "title": "Tucson [W]  00355",
    "icon": "img/starbucks.png"
  },{
    "position": {
      "lat": 32.25070669,
      "lng": -110.8903829
    },
    "state": "AZ",
    "title": "Tucson [W]  00356",
    "icon": "img/starbucks.png"
  },{
    "position": {
      "lat": 32.2866,
      "lng": -110.9654
    },
    "state": "AZ",
    "title": "Tucson [W]  00357",
    "icon": "img/starbucks.png"
  },{
    "position": {
      "lat": 32.33518446,
      "lng": -111.0130385
    },
    "state": "AZ",
    "title": "Tucson [W]  00358",
    "icon": "img/starbucks.png"
  },{
    "position": {
      "lat": 32.22149254,
      "lng": -110.8663807
    },
    "state": "AZ",
    "title": "Tucson [W]  00359",
    "icon": "img/starbucks.png"
  },{
    "position": {
      "lat": 32.28723994,
      "lng": -110.9448869
    },
    "state": "AZ",
    "title": "Tucson [W]  00360",
    "icon": "img/starbucks.png"
  },{
    "position": {
      "lat": 32.29661113,
      "lng": -110.9726828
    },
    "state": "AZ",
    "title": "Tucson [W]  00361",
    "icon": "img/starbucks.png"
  },{
    "position": {
      "lat": 32.32203293,
      "lng": -110.9293345
    },
    "state": "AZ",
    "title": "Tucson [W]  00362",
    "icon": "img/starbucks.png"
  },{
    "position": {
      "lat": 32.2362,
      "lng": -110.9276
    },
    "state": "AZ",
    "title": "Tucson [W]  00363",
    "icon": "img/starbucks.png"
  },{
    "position": {
      "lat": 32.30835655,
      "lng": -110.8924853
    },
    "state": "AZ",
    "title": "Tucson [W]  00364",
    "icon": "img/starbucks.png"
  },{
    "position": {
      "lat": 32.23218991,
      "lng": -110.9440335
    },
    "state": "AZ",
    "title": "Tucson [W]  00365",
    "icon": "img/starbucks.png"
  },{
    "position": {
      "lat": 32.261646,
      "lng": -109.84124
    },
    "state": "AZ",
    "title": "WILLCOX  00366",
    "icon": "img/starbucks.png"
  },{
    "position": {
      "lat": 33.962063,
      "lng": -112.76857
    },
    "state": "AZ",
    "title": "Wickenburg  00367",
    "icon": "img/starbucks.png"
  },{
    "position": {
      "lat": 35.2485,
      "lng": -112.1942
    },
    "state": "AZ",
    "title": "Williams  00368",
    "icon": "img/starbucks.png"
  },{
    "position": {
      "lat": 32.68396897,
      "lng": -114.6484345
    },
    "state": "AZ",
    "title": "Yuma  00369",
    "icon": "img/starbucks.png"
  },{
    "position": {
      "lat": 32.70183,
      "lng": -114.60354
    },
    "state": "AZ",
    "title": "Yuma  00370",
    "icon": "img/starbucks.png"
  },{
    "position": {
      "lat": 32.701324,
      "lng": -114.6034
    },
    "state": "AZ",
    "title": "Yuma  00371",
    "icon": "img/starbucks.png"
  },{
    "position": {
      "lat": 32.6839,
      "lng": -114.648861
    },
    "state": "AZ",
    "title": "Yuma [D]  00372",
    "icon": "img/starbucks.png"
  },{
    "position": {
      "lat": 34.079,
      "lng": -118.114954
    },
    "state": "CA",
    "title": "ALHAMBRA [W]  00373",
    "icon": "img/starbucks.png"
  },{
    "position": {
      "lat": 34.6267,
      "lng": -117.4283
    },
    "state": "CA",
    "title": "Adelanto [WD]  00374",
    "icon": "img/starbucks.png"
  },{
    "position": {
      "lat": 34.15343545,
      "lng": -118.7573187
    },
    "state": "CA",
    "title": "Agoura Hills  00375",
    "icon": "img/starbucks.png"
  },{
    "position": {
      "lat": 34.1606,
      "lng": -118.757134
    },
    "state": "CA",
    "title": "Agoura [W]  00376",
    "icon": "img/starbucks.png"
  },{
    "position": {
      "lat": 37.788222,
      "lng": -122.277604
    },
    "state": "CA",
    "title": "Alameda  00377",
    "icon": "img/starbucks.png"
  },{
    "position": {
      "lat": 37.757099,
      "lng": -122.253388
    },
    "state": "CA",
    "title": "Alameda  00378",
    "icon": "img/starbucks.png"
  },{
    "position": {
      "lat": 37.76807,
      "lng": -122.233245
    },
    "state": "CA",
    "title": "Alameda  00379",
    "icon": "img/starbucks.png"
  },{
    "position": {
      "lat": 37.76369586,
      "lng": -122.2432424
    },
    "state": "CA",
    "title": "Alameda [W]  00380",
    "icon": "img/starbucks.png"
  },{
    "position": {
      "lat": 37.75665,
      "lng": -122.252229
    },
    "state": "CA",
    "title": "Alameda [W]  00381",
    "icon": "img/starbucks.png"
  },{
    "position": {
      "lat": 37.77965876,
      "lng": -122.2761122
    },
    "state": "CA",
    "title": "Alameda [W]  00382",
    "icon": "img/starbucks.png"
  },{
    "position": {
      "lat": 37.8501398,
      "lng": -122.0337703
    },
    "state": "CA",
    "title": "Alamo  00383",
    "icon": "img/starbucks.png"
  },{
    "position": {
      "lat": 37.8492748,
      "lng": -122.0319981
    },
    "state": "CA",
    "title": "Alamo [W]  00384",
    "icon": "img/starbucks.png"
  },{
    "position": {
      "lat": 37.88531,
      "lng": -122.30793
    },
    "state": "CA",
    "title": "Albany  00385",
    "icon": "img/starbucks.png"
  },{
    "position": {
      "lat": 34.079716,
      "lng": -118.151899
    },
    "state": "CA",
    "title": "Alhambra [W]  00386",
    "icon": "img/starbucks.png"
  },{
    "position": {
      "lat": 34.07855268,
      "lng": -118.1228761
    },
    "state": "CA",
    "title": "Alhambra [W]  00387",
    "icon": "img/starbucks.png"
  },{
    "position": {
      "lat": 34.09456236,
      "lng": -118.1279698
    },
    "state": "CA",
    "title": "Alhambra [W]  00388",
    "icon": "img/starbucks.png"
  },{
    "position": {
      "lat": 33.575604,
      "lng": -117.703145
    },
    "state": "CA",
    "title": "Aliso Viejo [W]  00389",
    "icon": "img/starbucks.png"
  },{
    "position": {
      "lat": 38.165844,
      "lng": -122.263695
    },
    "state": "CA",
    "title": "American Canyon  00390",
    "icon": "img/starbucks.png"
  },{
    "position": {
      "lat": 38.171,
      "lng": -122.24529
    },
    "state": "CA",
    "title": "American Canyon [WD]  00391",
    "icon": "img/starbucks.png"
  },{
    "position": {
      "lat": 38.165852,
      "lng": -122.26392
    },
    "state": "CA",
    "title": "American Canyon [W]  00392",
    "icon": "img/starbucks.png"
  },{
    "position": {
      "lat": 33.79963958,
      "lng": -117.9178582
    },
    "state": "CA",
    "title": "Anaheim  00393",
    "icon": "img/starbucks.png"
  },{
    "position": {
      "lat": 33.79959067,
      "lng": -117.9190496
    },
    "state": "CA",
    "title": "Anaheim  00394",
    "icon": "img/starbucks.png"
  },{
    "position": {
      "lat": 33.836449,
      "lng": -117.914482
    },
    "state": "CA",
    "title": "Anaheim  00395",
    "icon": "img/starbucks.png"
  },{
    "position": {
      "lat": 33.86854485,
      "lng": -117.7519695
    },
    "state": "CA",
    "title": "Anaheim  00396",
    "icon": "img/starbucks.png"
  },{
    "position": {
      "lat": 33.85133277,
      "lng": -117.7922813
    },
    "state": "CA",
    "title": "Anaheim Hills  00397",
    "icon": "img/starbucks.png"
  },{
    "position": {
      "lat": 33.851543,
      "lng": -117.788732
    },
    "state": "CA",
    "title": "Anaheim Hills [W]  00398",
    "icon": "img/starbucks.png"
  },{
    "position": {
      "lat": 33.85987581,
      "lng": -117.791645
    },
    "state": "CA",
    "title": "Anaheim Hills [W]  00399",
    "icon": "img/starbucks.png"
  },{
    "position": {
      "lat": 33.86345977,
      "lng": -117.7395659
    },
    "state": "CA",
    "title": "Anaheim Hills [W]  00400",
    "icon": "img/starbucks.png"
  },{
    "position": {
      "lat": 33.863973,
      "lng": -117.744356
    },
    "state": "CA",
    "title": "Anaheim Hills [W]  00401",
    "icon": "img/starbucks.png"
  },{
    "position": {
      "lat": 33.85501077,
      "lng": -117.8373923
    },
    "state": "CA",
    "title": "Anaheim [WD]  00402",
    "icon": "img/starbucks.png"
  },{
    "position": {
      "lat": 33.84116153,
      "lng": -117.941573
    },
    "state": "CA",
    "title": "Anaheim [W]  00403",
    "icon": "img/starbucks.png"
  },{
    "position": {
      "lat": 33.81776518,
      "lng": -117.958873
    },
    "state": "CA",
    "title": "Anaheim [W]  00404",
    "icon": "img/starbucks.png"
  },{
    "position": {
      "lat": 33.805641,
      "lng": -117.883338
    },
    "state": "CA",
    "title": "Anaheim [W]  00405",
    "icon": "img/starbucks.png"
  },{
    "position": {
      "lat": 33.80158348,
      "lng": -117.8938678
    },
    "state": "CA",
    "title": "Anaheim [W]  00406",
    "icon": "img/starbucks.png"
  },{
    "position": {
      "lat": 40.4562,
      "lng": -122.3248
    },
    "state": "CA",
    "title": "Anderson  00407",
    "icon": "img/starbucks.png"
  },{
    "position": {
      "lat": 38.07990289,
      "lng": -120.5551201
    },
    "state": "CA",
    "title": "Angels Camp [WD]  00408",
    "icon": "img/starbucks.png"
  },{
    "position": {
      "lat": 38.71795184,
      "lng": -121.3769968
    },
    "state": "CA",
    "title": "Antelope [WD]  00409",
    "icon": "img/starbucks.png"
  },{
    "position": {
      "lat": 37.99698,
      "lng": -121.80573
    },
    "state": "CA",
    "title": "Antioch  00410",
    "icon": "img/starbucks.png"
  },{
    "position": {
      "lat": 37.96744918,
      "lng": -121.784687
    },
    "state": "CA",
    "title": "Antioch [WD]  00411",
    "icon": "img/starbucks.png"
  },{
    "position": {
      "lat": 37.96796292,
      "lng": -121.7860158
    },
    "state": "CA",
    "title": "Antioch [WD]  00412",
    "icon": "img/starbucks.png"
  },{
    "position": {
      "lat": 38.003835,
      "lng": -121.805999
    },
    "state": "CA",
    "title": "Antioch [W]  00413",
    "icon": "img/starbucks.png"
  },{
    "position": {
      "lat": 34.47103242,
      "lng": -117.2442133
    },
    "state": "CA",
    "title": "Apple Valley  00414",
    "icon": "img/starbucks.png"
  },{
    "position": {
      "lat": 34.525615,
      "lng": -117.21929
    },
    "state": "CA",
    "title": "Apple Valley [W]  00415",
    "icon": "img/starbucks.png"
  },{
    "position": {
      "lat": 36.97870222,
      "lng": -121.9075112
    },
    "state": "CA",
    "title": "Aptos  00416",
    "icon": "img/starbucks.png"
  },{
    "position": {
      "lat": 36.9765,
      "lng": -121.9004
    },
    "state": "CA",
    "title": "Aptos [W]  00417",
    "icon": "img/starbucks.png"
  },{
    "position": {
      "lat": 34.10843817,
      "lng": -118.0231553
    },
    "state": "CA",
    "title": "Arcadia  00418",
    "icon": "img/starbucks.png"
  },{
    "position": {
      "lat": 34.12226744,
      "lng": -118.0679847
    },
    "state": "CA",
    "title": "Arcadia  00419",
    "icon": "img/starbucks.png"
  },{
    "position": {
      "lat": 34.14013025,
      "lng": -118.0233603
    },
    "state": "CA",
    "title": "Arcadia [W]  00420",
    "icon": "img/starbucks.png"
  },{
    "position": {
      "lat": 34.12393407,
      "lng": -118.055758
    },
    "state": "CA",
    "title": "Arcadia [W]  00421",
    "icon": "img/starbucks.png"
  },{
    "position": {
      "lat": 35.12077807,
      "lng": -120.6056362
    },
    "state": "CA",
    "title": "Arroyo Grande [W]  00422",
    "icon": "img/starbucks.png"
  },{
    "position": {
      "lat": 35.12425004,
      "lng": -120.5916373
    },
    "state": "CA",
    "title": "Arroyo Grande [W]  00423",
    "icon": "img/starbucks.png"
  },{
    "position": {
      "lat": 33.87311766,
      "lng": -118.0820999
    },
    "state": "CA",
    "title": "Artesia [W]  00424",
    "icon": "img/starbucks.png"
  },{
    "position": {
      "lat": 35.47423353,
      "lng": -120.6652638
    },
    "state": "CA",
    "title": "Atascadero  00425",
    "icon": "img/starbucks.png"
  },{
    "position": {
      "lat": 35.526337,
      "lng": -120.70302
    },
    "state": "CA",
    "title": "Atascadero [D]  00426",
    "icon": "img/starbucks.png"
  },{
    "position": {
      "lat": 35.48474519,
      "lng": -120.6628732
    },
    "state": "CA",
    "title": "Atascadero [W]  00427",
    "icon": "img/starbucks.png"
  },{
    "position": {
      "lat": 37.3604,
      "lng": -120.613518
    },
    "state": "CA",
    "title": "Atwater [D]  00428",
    "icon": "img/starbucks.png"
  },{
    "position": {
      "lat": 38.877266,
      "lng": -121.080564
    },
    "state": "CA",
    "title": "Auburn  00429",
    "icon": "img/starbucks.png"
  },{
    "position": {
      "lat": 38.94250878,
      "lng": -121.0921941
    },
    "state": "CA",
    "title": "Auburn [WD]  00430",
    "icon": "img/starbucks.png"
  },{
    "position": {
      "lat": 39.0425,
      "lng": -121.094254
    },
    "state": "CA",
    "title": "Auburn [WD]  00431",
    "icon": "img/starbucks.png"
  },{
    "position": {
      "lat": 38.90395451,
      "lng": -121.0761474
    },
    "state": "CA",
    "title": "Auburn [W]  00432",
    "icon": "img/starbucks.png"
  },{
    "position": {
      "lat": 38.92081529,
      "lng": -121.0581499
    },
    "state": "CA",
    "title": "Auburn [W]  00433",
    "icon": "img/starbucks.png"
  },{
    "position": {
      "lat": 34.12870314,
      "lng": -117.8836472
    },
    "state": "CA",
    "title": "Azusa [W]  00434",
    "icon": "img/starbucks.png"
  },{
    "position": {
      "lat": 34.1334,
      "lng": -117.9078
    },
    "state": "CA",
    "title": "Azusa [W]  00435",
    "icon": "img/starbucks.png"
  },{
    "position": {
      "lat": 35.4106,
      "lng": -116.061104
    },
    "state": "CA",
    "title": "Baker [WD]  00436",
    "icon": "img/starbucks.png"
  },{
    "position": {
      "lat": 35.2959,
      "lng": -119.04093
    },
    "state": "CA",
    "title": "Bakersfield  00437",
    "icon": "img/starbucks.png"
  },{
    "position": {
      "lat": 35.3182581,
      "lng": -119.0932902
    },
    "state": "CA",
    "title": "Bakersfield  00438",
    "icon": "img/starbucks.png"
  },{
    "position": {
      "lat": 35.38337,
      "lng": -119.14679
    },
    "state": "CA",
    "title": "Bakersfield  00439",
    "icon": "img/starbucks.png"
  },{
    "position": {
      "lat": 35.36857392,
      "lng": -119.0187784
    },
    "state": "CA",
    "title": "Bakersfield  00440",
    "icon": "img/starbucks.png"
  },{
    "position": {
      "lat": 35.339935,
      "lng": -119.102264
    },
    "state": "CA",
    "title": "Bakersfield  00441",
    "icon": "img/starbucks.png"
  },{
    "position": {
      "lat": 35.3544,
      "lng": -119.0664
    },
    "state": "CA",
    "title": "Bakersfield  00442",
    "icon": "img/starbucks.png"
  },{
    "position": {
      "lat": 35.41244764,
      "lng": -119.0582569
    },
    "state": "CA",
    "title": "Bakersfield [D]  00443",
    "icon": "img/starbucks.png"
  },{
    "position": {
      "lat": 35.38118245,
      "lng": -119.0152813
    },
    "state": "CA",
    "title": "Bakersfield [WD]  00444",
    "icon": "img/starbucks.png"
  },{
    "position": {
      "lat": 35.310587,
      "lng": -119.092299
    },
    "state": "CA",
    "title": "Bakersfield [WD]  00445",
    "icon": "img/starbucks.png"
  },{
    "position": {
      "lat": 35.3936373,
      "lng": -118.967388
    },
    "state": "CA",
    "title": "Bakersfield [WD]  00446",
    "icon": "img/starbucks.png"
  },{
    "position": {
      "lat": 35.38347739,
      "lng": -119.1044016
    },
    "state": "CA",
    "title": "Bakersfield [WD]  00447",
    "icon": "img/starbucks.png"
  },{
    "position": {
      "lat": 35.3977,
      "lng": -118.949699
    },
    "state": "CA",
    "title": "Bakersfield [WD]  00448",
    "icon": "img/starbucks.png"
  },{
    "position": {
      "lat": 35.317927,
      "lng": -119.054597
    },
    "state": "CA",
    "title": "Bakersfield [WD]  00449",
    "icon": "img/starbucks.png"
  },{
    "position": {
      "lat": 35.33993,
      "lng": -119.10229
    },
    "state": "CA",
    "title": "Bakersfield [W]  00450",
    "icon": "img/starbucks.png"
  },{
    "position": {
      "lat": 35.399772,
      "lng": -119.092099
    },
    "state": "CA",
    "title": "Bakersfield [W]  00451",
    "icon": "img/starbucks.png"
  },{
    "position": {
      "lat": 35.35443543,
      "lng": -119.093446
    },
    "state": "CA",
    "title": "Bakersfield [W]  00452",
    "icon": "img/starbucks.png"
  },{
    "position": {
      "lat": 35.33932363,
      "lng": -119.0318787
    },
    "state": "CA",
    "title": "Bakersfield [W]  00453",
    "icon": "img/starbucks.png"
  },{
    "position": {
      "lat": 35.2959,
      "lng": -119.02633
    },
    "state": "CA",
    "title": "Bakersfield [W]  00454",
    "icon": "img/starbucks.png"
  },{
    "position": {
      "lat": 35.35581513,
      "lng": -119.0611119
    },
    "state": "CA",
    "title": "Bakersfield [W]  00455",
    "icon": "img/starbucks.png"
  },{
    "position": {
      "lat": 34.070196,
      "lng": -117.97919
    },
    "state": "CA",
    "title": "Baldwin Park  00456",
    "icon": "img/starbucks.png"
  },{
    "position": {
      "lat": 34.06453371,
      "lng": -117.9678991
    },
    "state": "CA",
    "title": "Baldwin Park [WD]  00457",
    "icon": "img/starbucks.png"
  },{
    "position": {
      "lat": 34.072124,
      "lng": -117.959361
    },
    "state": "CA",
    "title": "Baldwin Park [WD]  00458",
    "icon": "img/starbucks.png"
  },{
    "position": {
      "lat": 33.922893,
      "lng": -116.9467
    },
    "state": "CA",
    "title": "Banning  00459",
    "icon": "img/starbucks.png"
  },{
    "position": {
      "lat": 33.925572,
      "lng": -116.901641
    },
    "state": "CA",
    "title": "Banning [WD]  00460",
    "icon": "img/starbucks.png"
  },{
    "position": {
      "lat": 34.84932,
      "lng": -117.082899
    },
    "state": "CA",
    "title": "Barstow [WD]  00461",
    "icon": "img/starbucks.png"
  },{
    "position": {
      "lat": 34.89386,
      "lng": -117.00329
    },
    "state": "CA",
    "title": "Barstow [WD]  00462",
    "icon": "img/starbucks.png"
  },{
    "position": {
      "lat": 34.8679,
      "lng": -117.1152
    },
    "state": "CA",
    "title": "Barstow [W]  00463",
    "icon": "img/starbucks.png"
  },{
    "position": {
      "lat": 33.9472901,
      "lng": -116.9771802
    },
    "state": "CA",
    "title": "Beaumont [W]  00464",
    "icon": "img/starbucks.png"
  },{
    "position": {
      "lat": 33.96915012,
      "lng": -118.1644993
    },
    "state": "CA",
    "title": "Bell Gardens [WD]  00465",
    "icon": "img/starbucks.png"
  },{
    "position": {
      "lat": 33.97110355,
      "lng": -118.1879268
    },
    "state": "CA",
    "title": "Bell [WD]  00466",
    "icon": "img/starbucks.png"
  },{
    "position": {
      "lat": 33.87566874,
      "lng": -118.1425471
    },
    "state": "CA",
    "title": "Bellflower  00467",
    "icon": "img/starbucks.png"
  },{
    "position": {
      "lat": 37.51969635,
      "lng": -122.2753141
    },
    "state": "CA",
    "title": "Belmont  00468",
    "icon": "img/starbucks.png"
  },{
    "position": {
      "lat": 37.51063756,
      "lng": -122.2937616
    },
    "state": "CA",
    "title": "Belmont [W]  00469",
    "icon": "img/starbucks.png"
  },{
    "position": {
      "lat": 37.52001067,
      "lng": -122.2756712
    },
    "state": "CA",
    "title": "Belmont [W]  00470",
    "icon": "img/starbucks.png"
  },{
    "position": {
      "lat": 38.054404,
      "lng": -122.155398
    },
    "state": "CA",
    "title": "Benicia  00471",
    "icon": "img/starbucks.png"
  },{
    "position": {
      "lat": 38.047013,
      "lng": -122.160614
    },
    "state": "CA",
    "title": "Benicia [W]  00472",
    "icon": "img/starbucks.png"
  },{
    "position": {
      "lat": 38.06639141,
      "lng": -122.1643115
    },
    "state": "CA",
    "title": "Benicia [W]  00473",
    "icon": "img/starbucks.png"
  },{
    "position": {
      "lat": 37.86893429,
      "lng": -122.2678041
    },
    "state": "CA",
    "title": "Berkeley [W]  00474",
    "icon": "img/starbucks.png"
  },{
    "position": {
      "lat": 37.89132957,
      "lng": -122.2798893
    },
    "state": "CA",
    "title": "Berkeley [W]  00475",
    "icon": "img/starbucks.png"
  },{
    "position": {
      "lat": 37.87041074,
      "lng": -122.2658093
    },
    "state": "CA",
    "title": "Berkeley [W]  00476",
    "icon": "img/starbucks.png"
  },{
    "position": {
      "lat": 37.87830521,
      "lng": -122.2691698
    },
    "state": "CA",
    "title": "Berkeley [W]  00477",
    "icon": "img/starbucks.png"
  },{
    "position": {
      "lat": 34.07037888,
      "lng": -118.4024714
    },
    "state": "CA",
    "title": "Beverly Hills [W]  00478",
    "icon": "img/starbucks.png"
  },{
    "position": {
      "lat": 34.06375507,
      "lng": -118.3762488
    },
    "state": "CA",
    "title": "Beverly Hills [W]  00479",
    "icon": "img/starbucks.png"
  },{
    "position": {
      "lat": 34.066963,
      "lng": -118.409348
    },
    "state": "CA",
    "title": "Beverly Hills [W]  00480",
    "icon": "img/starbucks.png"
  },{
    "position": {
      "lat": 34.05926463,
      "lng": -118.3890518
    },
    "state": "CA",
    "title": "Beverly Hills [W]  00481",
    "icon": "img/starbucks.png"
  },{
    "position": {
      "lat": 34.06488753,
      "lng": -118.3990671
    },
    "state": "CA",
    "title": "Beverly Hills [W]  00482",
    "icon": "img/starbucks.png"
  },{
    "position": {
      "lat": 34.2500314,
      "lng": -116.8834427
    },
    "state": "CA",
    "title": "Big Bear Lake  00483",
    "icon": "img/starbucks.png"
  },{
    "position": {
      "lat": 34.247523,
      "lng": -116.8827
    },
    "state": "CA",
    "title": "Big Bear Lake [WD]  00484",
    "icon": "img/starbucks.png"
  },{
    "position": {
      "lat": 34.2411431,
      "lng": -116.9166325
    },
    "state": "CA",
    "title": "Big Bear Lake [W]  00485",
    "icon": "img/starbucks.png"
  },{
    "position": {
      "lat": 37.37398916,
      "lng": -118.3957168
    },
    "state": "CA",
    "title": "Bishop  00486",
    "icon": "img/starbucks.png"
  },{
    "position": {
      "lat": 37.370454,
      "lng": -118.395399
    },
    "state": "CA",
    "title": "Bishop [D]  00487",
    "icon": "img/starbucks.png"
  },{
    "position": {
      "lat": 34.24696465,
      "lng": -117.2086963
    },
    "state": "CA",
    "title": "Blue Jay  00488",
    "icon": "img/starbucks.png"
  },{
    "position": {
      "lat": 33.6106,
      "lng": -114.58
    },
    "state": "CA",
    "title": "Blythe  00489",
    "icon": "img/starbucks.png"
  },{
    "position": {
      "lat": 33.61027149,
      "lng": -114.6049189
    },
    "state": "CA",
    "title": "Blythe [D]  00490",
    "icon": "img/starbucks.png"
  },{
    "position": {
      "lat": 32.66077,
      "lng": -117.032743
    },
    "state": "CA",
    "title": "Bonita  00491",
    "icon": "img/starbucks.png"
  },{
    "position": {
      "lat": 32.66938728,
      "lng": -117.0228185
    },
    "state": "CA",
    "title": "Bonita [W]  00492",
    "icon": "img/starbucks.png"
  },{
    "position": {
      "lat": 33.91097754,
      "lng": -117.8655885
    },
    "state": "CA",
    "title": "Brea  00493",
    "icon": "img/starbucks.png"
  },{
    "position": {
      "lat": 33.90938938,
      "lng": -117.8524553
    },
    "state": "CA",
    "title": "Brea [WD]  00494",
    "icon": "img/starbucks.png"
  },{
    "position": {
      "lat": 33.91886285,
      "lng": -117.9007584
    },
    "state": "CA",
    "title": "Brea [W]  00495",
    "icon": "img/starbucks.png"
  },{
    "position": {
      "lat": 33.91651656,
      "lng": -117.9003852
    },
    "state": "CA",
    "title": "Brea [W]  00496",
    "icon": "img/starbucks.png"
  },{
    "position": {
      "lat": 33.91284579,
      "lng": -117.8794047
    },
    "state": "CA",
    "title": "Brea [W]  00497",
    "icon": "img/starbucks.png"
  },{
    "position": {
      "lat": 37.943817,
      "lng": -121.696199
    },
    "state": "CA",
    "title": "Brentwood  00498",
    "icon": "img/starbucks.png"
  },{
    "position": {
      "lat": 37.92551329,
      "lng": -121.6905298
    },
    "state": "CA",
    "title": "Brentwood [WD]  00499",
    "icon": "img/starbucks.png"
  },{
    "position": {
      "lat": 37.92537327,
      "lng": -121.7285603
    },
    "state": "CA",
    "title": "Brentwood [W]  00500",
    "icon": "img/starbucks.png"
  },{
    "position": {
      "lat": 34.04849301,
      "lng": -118.4907091
    },
    "state": "CA",
    "title": "Brentwood [W]  00501",
    "icon": "img/starbucks.png"
  },{
    "position": {
      "lat": 37.94716841,
      "lng": -121.7397755
    },
    "state": "CA",
    "title": "Brentwood [W]  00502",
    "icon": "img/starbucks.png"
  },{
    "position": {
      "lat": 33.858864,
      "lng": -118.002174
    },
    "state": "CA",
    "title": "Buena Park  00503",
    "icon": "img/starbucks.png"
  },{
    "position": {
      "lat": 33.8318,
      "lng": -118.030457
    },
    "state": "CA",
    "title": "Buena Park [D]  00504",
    "icon": "img/starbucks.png"
  },{
    "position": {
      "lat": 33.84682485,
      "lng": -117.9902885
    },
    "state": "CA",
    "title": "Buena Park [WD]  00505",
    "icon": "img/starbucks.png"
  },{
    "position": {
      "lat": 33.85122007,
      "lng": -117.9979246
    },
    "state": "CA",
    "title": "Buena Park [W]  00506",
    "icon": "img/starbucks.png"
  },{
    "position": {
      "lat": 34.16055473,
      "lng": -118.3450331
    },
    "state": "CA",
    "title": "Burbank  00507",
    "icon": "img/starbucks.png"
  },{
    "position": {
      "lat": 34.1564,
      "lng": -118.327065
    },
    "state": "CA",
    "title": "Burbank  00508",
    "icon": "img/starbucks.png"
  },{
    "position": {
      "lat": 34.15246215,
      "lng": -118.3363468
    },
    "state": "CA",
    "title": "Burbank  00509",
    "icon": "img/starbucks.png"
  },{
    "position": {
      "lat": 34.18777364,
      "lng": -118.3234391
    },
    "state": "CA",
    "title": "Burbank  00510",
    "icon": "img/starbucks.png"
  },{
    "position": {
      "lat": 34.16288161,
      "lng": -118.3139848
    },
    "state": "CA",
    "title": "Burbank  00511",
    "icon": "img/starbucks.png"
  },{
    "position": {
      "lat": 34.15495176,
      "lng": -118.345472
    },
    "state": "CA",
    "title": "Burbank  00512",
    "icon": "img/starbucks.png"
  },{
    "position": {
      "lat": 34.15003743,
      "lng": -118.3408001
    },
    "state": "CA",
    "title": "Burbank  00513",
    "icon": "img/starbucks.png"
  },{
    "position": {
      "lat": 34.18747712,
      "lng": -118.3177824
    },
    "state": "CA",
    "title": "Burbank [WD]  00514",
    "icon": "img/starbucks.png"
  },{
    "position": {
      "lat": 34.15403651,
      "lng": -118.3405133
    },
    "state": "CA",
    "title": "Burbank [W]  00515",
    "icon": "img/starbucks.png"
  },{
    "position": {
      "lat": 34.15553624,
      "lng": -118.345749
    },
    "state": "CA",
    "title": "Burbank [W]  00516",
    "icon": "img/starbucks.png"
  },{
    "position": {
      "lat": 34.17420024,
      "lng": -118.3000628
    },
    "state": "CA",
    "title": "Burbank [W]  00517",
    "icon": "img/starbucks.png"
  },{
    "position": {
      "lat": 34.18233246,
      "lng": -118.3106991
    },
    "state": "CA",
    "title": "Burbank [W]  00518",
    "icon": "img/starbucks.png"
  },{
    "position": {
      "lat": 34.16257766,
      "lng": -118.3148591
    },
    "state": "CA",
    "title": "Burbank [W]  00519",
    "icon": "img/starbucks.png"
  },{
    "position": {
      "lat": 34.15239159,
      "lng": -118.3453539
    },
    "state": "CA",
    "title": "Burbank [W]  00520",
    "icon": "img/starbucks.png"
  },{
    "position": {
      "lat": 34.18423972,
      "lng": -118.3217456
    },
    "state": "CA",
    "title": "Burbank [W]  00521",
    "icon": "img/starbucks.png"
  },{
    "position": {
      "lat": 37.58595044,
      "lng": -122.3648607
    },
    "state": "CA",
    "title": "Burlingame [W]  00522",
    "icon": "img/starbucks.png"
  },{
    "position": {
      "lat": 37.59601814,
      "lng": -122.3852557
    },
    "state": "CA",
    "title": "Burlingame [W]  00523",
    "icon": "img/starbucks.png"
  },{
    "position": {
      "lat": 37.5792671,
      "lng": -122.3459957
    },
    "state": "CA",
    "title": "Burlingame [W]  00524",
    "icon": "img/starbucks.png"
  },{
    "position": {
      "lat": 35.40986154,
      "lng": -119.4117631
    },
    "state": "CA",
    "title": "Buttonwillow [WD]  00525",
    "icon": "img/starbucks.png"
  },{
    "position": {
      "lat": 37.88994481,
      "lng": -121.640581
    },
    "state": "CA",
    "title": "Byron [W]  00526",
    "icon": "img/starbucks.png"
  },{
    "position": {
      "lat": 33.926375,
      "lng": -116.813329
    },
    "state": "CA",
    "title": "Cabazon [W]  00527",
    "icon": "img/starbucks.png"
  },{
    "position": {
      "lat": 34.14383311,
      "lng": -118.6993963
    },
    "state": "CA",
    "title": "Calabasas  00528",
    "icon": "img/starbucks.png"
  },{
    "position": {
      "lat": 34.144036,
      "lng": -118.699539
    },
    "state": "CA",
    "title": "Calabasas [W]  00529",
    "icon": "img/starbucks.png"
  },{
    "position": {
      "lat": 34.156932,
      "lng": -118.640252
    },
    "state": "CA",
    "title": "Calabasas [W]  00530",
    "icon": "img/starbucks.png"
  },{
    "position": {
      "lat": 32.679,
      "lng": -115.49891
    },
    "state": "CA",
    "title": "Calexico [D]  00531",
    "icon": "img/starbucks.png"
  },{
    "position": {
      "lat": 34.22839678,
      "lng": -118.9977141
    },
    "state": "CA",
    "title": "Camarillo  00532",
    "icon": "img/starbucks.png"
  },{
    "position": {
      "lat": 34.21598291,
      "lng": -119.0733379
    },
    "state": "CA",
    "title": "Camarillo  00533",
    "icon": "img/starbucks.png"
  },{
    "position": {
      "lat": 34.22582,
      "lng": -119.03883
    },
    "state": "CA",
    "title": "Camarillo  00534",
    "icon": "img/starbucks.png"
  },{
    "position": {
      "lat": 34.236991,
      "lng": -119.036421
    },
    "state": "CA",
    "title": "Camarillo [W]  00535",
    "icon": "img/starbucks.png"
  },{
    "position": {
      "lat": 34.2158,
      "lng": -119.0043
    },
    "state": "CA",
    "title": "Camarillo [W]  00536",
    "icon": "img/starbucks.png"
  },{
    "position": {
      "lat": 34.22202648,
      "lng": -119.0698058
    },
    "state": "CA",
    "title": "Camarillo [W]  00537",
    "icon": "img/starbucks.png"
  },{
    "position": {
      "lat": 38.6581,
      "lng": -120.9699
    },
    "state": "CA",
    "title": "Cameron Park  00538",
    "icon": "img/starbucks.png"
  },{
    "position": {
      "lat": 38.65812621,
      "lng": -120.9744664
    },
    "state": "CA",
    "title": "Cameron Park [W]  00539",
    "icon": "img/starbucks.png"
  },{
    "position": {
      "lat": 37.280915,
      "lng": -121.948803
    },
    "state": "CA",
    "title": "Campbell  00540",
    "icon": "img/starbucks.png"
  },{
    "position": {
      "lat": 37.28701309,
      "lng": -121.9451018
    },
    "state": "CA",
    "title": "Campbell [W]  00541",
    "icon": "img/starbucks.png"
  },{
    "position": {
      "lat": 37.28590706,
      "lng": -121.9822882
    },
    "state": "CA",
    "title": "Campbell [W]  00542",
    "icon": "img/starbucks.png"
  },{
    "position": {
      "lat": 37.29273081,
      "lng": -121.9316187
    },
    "state": "CA",
    "title": "Campbell [W]  00543",
    "icon": "img/starbucks.png"
  },{
    "position": {
      "lat": 37.2698527,
      "lng": -121.945774
    },
    "state": "CA",
    "title": "Campbell [W]  00544",
    "icon": "img/starbucks.png"
  },{
    "position": {
      "lat": 37.294299,
      "lng": -121.944177
    },
    "state": "CA",
    "title": "Campbell [W]  00545",
    "icon": "img/starbucks.png"
  },{
    "position": {
      "lat": 34.191936,
      "lng": -118.6057
    },
    "state": "CA",
    "title": "Canoga Park  00546",
    "icon": "img/starbucks.png"
  },{
    "position": {
      "lat": 34.20104529,
      "lng": -118.5971781
    },
    "state": "CA",
    "title": "Canoga Park [D]  00547",
    "icon": "img/starbucks.png"
  },{
    "position": {
      "lat": 34.19045508,
      "lng": -118.6058524
    },
    "state": "CA",
    "title": "Canoga Park [W]  00548",
    "icon": "img/starbucks.png"
  },{
    "position": {
      "lat": 34.41609379,
      "lng": -118.4581428
    },
    "state": "CA",
    "title": "Canyon Country  00549",
    "icon": "img/starbucks.png"
  },{
    "position": {
      "lat": 36.97657803,
      "lng": -121.9648575
    },
    "state": "CA",
    "title": "Capitola [W]  00550",
    "icon": "img/starbucks.png"
  },{
    "position": {
      "lat": 36.9767,
      "lng": -121.96517
    },
    "state": "CA",
    "title": "Capitola [W]  00551",
    "icon": "img/starbucks.png"
  },{
    "position": {
      "lat": 33.02135209,
      "lng": -117.2826536
    },
    "state": "CA",
    "title": "Cardiff [W]  00552",
    "icon": "img/starbucks.png"
  },{
    "position": {
      "lat": 33.17850444,
      "lng": -117.3266193
    },
    "state": "CA",
    "title": "Carlsbad  00553",
    "icon": "img/starbucks.png"
  },{
    "position": {
      "lat": 33.10370349,
      "lng": -117.266784
    },
    "state": "CA",
    "title": "Carlsbad  00554",
    "icon": "img/starbucks.png"
  },{
    "position": {
      "lat": 33.09832,
      "lng": -117.307785
    },
    "state": "CA",
    "title": "Carlsbad [W]  00555",
    "icon": "img/starbucks.png"
  },{
    "position": {
      "lat": 33.12690242,
      "lng": -117.3231156
    },
    "state": "CA",
    "title": "Carlsbad [W]  00556",
    "icon": "img/starbucks.png"
  },{
    "position": {
      "lat": 33.08604764,
      "lng": -117.26872
    },
    "state": "CA",
    "title": "Carlsbad [W]  00557",
    "icon": "img/starbucks.png"
  },{
    "position": {
      "lat": 33.131412,
      "lng": -117.259506
    },
    "state": "CA",
    "title": "Carlsbad [W]  00558",
    "icon": "img/starbucks.png"
  },{
    "position": {
      "lat": 33.15895378,
      "lng": -117.3517009
    },
    "state": "CA",
    "title": "Carlsbad [W]  00559",
    "icon": "img/starbucks.png"
  },{
    "position": {
      "lat": 36.5427,
      "lng": -121.9073
    },
    "state": "CA",
    "title": "Carmel  00560",
    "icon": "img/starbucks.png"
  },{
    "position": {
      "lat": 36.5382,
      "lng": -121.9078
    },
    "state": "CA",
    "title": "Carmel  00561",
    "icon": "img/starbucks.png"
  },{
    "position": {
      "lat": 38.64943821,
      "lng": -121.3277238
    },
    "state": "CA",
    "title": "Carmichael  00562",
    "icon": "img/starbucks.png"
  },{
    "position": {
      "lat": 38.66071485,
      "lng": -121.3249234
    },
    "state": "CA",
    "title": "Carmichael [D]  00563",
    "icon": "img/starbucks.png"
  },{
    "position": {
      "lat": 38.63698678,
      "lng": -121.3279834
    },
    "state": "CA",
    "title": "Carmichael [W]  00564",
    "icon": "img/starbucks.png"
  },{
    "position": {
      "lat": 34.39791525,
      "lng": -119.5195815
    },
    "state": "CA",
    "title": "Carpinteria  00565",
    "icon": "img/starbucks.png"
  },{
    "position": {
      "lat": 34.3948536,
      "lng": -119.5136784
    },
    "state": "CA",
    "title": "Carpinteria [W]  00566",
    "icon": "img/starbucks.png"
  },{
    "position": {
      "lat": 33.83162297,
      "lng": -118.277655
    },
    "state": "CA",
    "title": "Carson  00567",
    "icon": "img/starbucks.png"
  },{
    "position": {
      "lat": 33.80797852,
      "lng": -118.2736158
    },
    "state": "CA",
    "title": "Carson  00568",
    "icon": "img/starbucks.png"
  },{
    "position": {
      "lat": 33.843967,
      "lng": -118.263245
    },
    "state": "CA",
    "title": "Carson  00569",
    "icon": "img/starbucks.png"
  },{
    "position": {
      "lat": 33.871438,
      "lng": -118.271512
    },
    "state": "CA",
    "title": "Carson [WD]  00570",
    "icon": "img/starbucks.png"
  },{
    "position": {
      "lat": 33.84166464,
      "lng": -118.2627994
    },
    "state": "CA",
    "title": "Carson [WD]  00571",
    "icon": "img/starbucks.png"
  },{
    "position": {
      "lat": 33.84194126,
      "lng": -118.2855029
    },
    "state": "CA",
    "title": "Carson [WD]  00572",
    "icon": "img/starbucks.png"
  },{
    "position": {
      "lat": 33.807763,
      "lng": -118.273264
    },
    "state": "CA",
    "title": "Carson [W]  00573",
    "icon": "img/starbucks.png"
  },{
    "position": {
      "lat": 34.49696349,
      "lng": -118.6228384
    },
    "state": "CA",
    "title": "Castaic [W]  00574",
    "icon": "img/starbucks.png"
  },{
    "position": {
      "lat": 37.69628278,
      "lng": -122.073917
    },
    "state": "CA",
    "title": "Castro Valley  00575",
    "icon": "img/starbucks.png"
  },{
    "position": {
      "lat": 37.69598137,
      "lng": -122.0778835
    },
    "state": "CA",
    "title": "Castro Valley [W]  00576",
    "icon": "img/starbucks.png"
  },{
    "position": {
      "lat": 37.69436944,
      "lng": -122.0862027
    },
    "state": "CA",
    "title": "Castro Valley [W]  00577",
    "icon": "img/starbucks.png"
  },{
    "position": {
      "lat": 37.69292069,
      "lng": -122.057534
    },
    "state": "CA",
    "title": "Castro Valley [W]  00578",
    "icon": "img/starbucks.png"
  },{
    "position": {
      "lat": 33.816137,
      "lng": -116.457213
    },
    "state": "CA",
    "title": "Cathedral City [WD]  00579",
    "icon": "img/starbucks.png"
  },{
    "position": {
      "lat": 33.801132,
      "lng": -116.458112
    },
    "state": "CA",
    "title": "Cathedral City [WD]  00580",
    "icon": "img/starbucks.png"
  },{
    "position": {
      "lat": 33.78825256,
      "lng": -116.4822647
    },
    "state": "CA",
    "title": "Cathedral City [WD]  00581",
    "icon": "img/starbucks.png"
  },{
    "position": {
      "lat": 33.77876201,
      "lng": -116.461378
    },
    "state": "CA",
    "title": "Cathedral City [W]  00582",
    "icon": "img/starbucks.png"
  },{
    "position": {
      "lat": 34.06187677,
      "lng": -118.415017
    },
    "state": "CA",
    "title": "Century City  00583",
    "icon": "img/starbucks.png"
  },{
    "position": {
      "lat": 34.05939741,
      "lng": -118.412804
    },
    "state": "CA",
    "title": "Century City [W]  00584",
    "icon": "img/starbucks.png"
  },{
    "position": {
      "lat": 34.05863243,
      "lng": -118.4160278
    },
    "state": "CA",
    "title": "Century City [W]  00585",
    "icon": "img/starbucks.png"
  },{
    "position": {
      "lat": 37.61045033,
      "lng": -120.9743162
    },
    "state": "CA",
    "title": "Ceres [WD]  00586",
    "icon": "img/starbucks.png"
  },{
    "position": {
      "lat": 37.6091321,
      "lng": -120.9387719
    },
    "state": "CA",
    "title": "Ceres [WD]  00587",
    "icon": "img/starbucks.png"
  },{
    "position": {
      "lat": 33.8643134,
      "lng": -118.0930396
    },
    "state": "CA",
    "title": "Cerritos  00588",
    "icon": "img/starbucks.png"
  },{
    "position": {
      "lat": 33.8465209,
      "lng": -118.0819769
    },
    "state": "CA",
    "title": "Cerritos [W]  00589",
    "icon": "img/starbucks.png"
  },{
    "position": {
      "lat": 33.86987332,
      "lng": -118.060899
    },
    "state": "CA",
    "title": "Cerritos [W]  00590",
    "icon": "img/starbucks.png"
  },{
    "position": {
      "lat": 33.85851045,
      "lng": -118.0907501
    },
    "state": "CA",
    "title": "Cerritos [W]  00591",
    "icon": "img/starbucks.png"
  },{
    "position": {
      "lat": 34.25722359,
      "lng": -118.5783951
    },
    "state": "CA",
    "title": "Chatsworth  00592",
    "icon": "img/starbucks.png"
  },{
    "position": {
      "lat": 34.25049646,
      "lng": -118.6060364
    },
    "state": "CA",
    "title": "Chatsworth [W]  00593",
    "icon": "img/starbucks.png"
  },{
    "position": {
      "lat": 34.25722359,
      "lng": -118.5801846
    },
    "state": "CA",
    "title": "Chatsworth [W]  00594",
    "icon": "img/starbucks.png"
  },{
    "position": {
      "lat": 39.7458,
      "lng": -121.8445
    },
    "state": "CA",
    "title": "Chico  00595",
    "icon": "img/starbucks.png"
  },{
    "position": {
      "lat": 39.7610754,
      "lng": -121.8214372
    },
    "state": "CA",
    "title": "Chico  00596",
    "icon": "img/starbucks.png"
  },{
    "position": {
      "lat": 39.7611,
      "lng": -121.820802
    },
    "state": "CA",
    "title": "Chico  00597",
    "icon": "img/starbucks.png"
  },{
    "position": {
      "lat": 39.73510245,
      "lng": -121.8356523
    },
    "state": "CA",
    "title": "Chico  00598",
    "icon": "img/starbucks.png"
  },{
    "position": {
      "lat": 39.746505,
      "lng": -121.851681
    },
    "state": "CA",
    "title": "Chico [D]  00599",
    "icon": "img/starbucks.png"
  },{
    "position": {
      "lat": 39.75996891,
      "lng": -121.8434031
    },